id,latitude,longitude,address,created_at,id,municipality,city,zip_code,plugs,cost_description,description,country_code,closest_in_meters
96548,55.494803,9.721409,"Teglgårdsvej 73, 5500 Middelfart, Denmark",2016-10-01T10:37:25Z,96548,Middelfart Municipality,Middelfart,5500,11,Free,Free for hotel guests: http://www.sinatur.dk/moeder-konferencer/lad-op-paa-sinatur/,DK,1507
337709,55.653682,12.614406,"Elbagade 28, 2300 København, Danmark",2021-09-09T20:26:12Z,337709,,København,2300,11,Clever,,DK,233
91943,56.292127,10.444662,"Præstekravevej 46, 8410 Rønde, Denmark",2016-07-25T14:01:47Z,91943,Syddjurs Municipality,Rønde,8410,11,,"2x Red CEE Free for hotel guests
Tesla Destination Charger 11kW.
Available to the public. Self park.",DK,2753
70961,55.215571,9.372034,"Sønderjyske Motorvej 684, 6500 Vojens, Denmark",2015-09-12T00:45:42Z,70961,Haderslev Municipality,Vojens,6500,11,clever.dk,"Clever 50 kW DC, 43 kW aC",DK,8945
81790,55.694021,12.544642,"Husumgade 32, 2200 København N, Denmark",2016-03-02T11:14:06Z,81790,København,København,2200,11,,Charging Station Virta,DK,423
80716,54.769979,11.872405,"Engboulevarden, 4800 Nykøbing Falster, Denmark",2016-02-03T20:43:27Z,80716,Guldborgsund Municipality,Nykøbing Falster,4800,11,clever.dk,Charging Station Clever A/S,DK,695
60269,55.657731,12.525181,"Sjælør Blvd. 141, 2500 Valby, Denmark",2015-01-22T11:18:05Z,60269,København,København,2500,11,clever.dk,"Charging Station Clever A/S
- 2x22kw",DK,806
186756,55.058999,8.824501,"Storegade 5, 6261 Bredebro, Denmark",2019-04-09T15:01:13Z,186756,,Bredebro,6261,11,Clever ,Clever 22 kwh,DK,12875
204434,57.088831,9.268868,"Østergade 23, 9690 Fjerritslev, Denmark",2019-08-25T13:18:35Z,204434,,Fjerritslev,9690,11,,"Type 2

Free charging",DK,646
246319,55.676391,11.124048,"Stejlhøj 26, Kalundborg, 4400, DK",2020-06-06T20:18:37Z,246319,,Kalundborg,4400,11,,Clever type 2 11 - 22Kw,DK,203
310947,55.679175,12.51148,"P. G. Ramms Alle 1, 2000 Frederiksberg, Denmark",2021-03-26T22:06:09Z,310947,,Frederiksberg,2000,11,,Charging Station Liikennevirta Oy (Virta),DK,570
80768,56.028635,8.118263,"Danevej 5, Hvide sande, 6960, DK",2016-02-04T20:50:33Z,80768,Ringkøbing-Skjern Municipality,Hvide Sande,6960,11,E.ON (http://www.eon.dk/e-mobility/),Ligger i et industri område i forbinelse med et auto værksted. Laderen er en type2 lader fra e-on.,DK,8515
59371,55.931698,12.324107,"Dyrehavevej, 3400 Hillerød, Denmark",2014-12-29T15:35:59Z,59371,Hillerød Municipality,Hillerød,3400,11,clever.dk,2x22kw,DK,44
331830,55.707627,12.567606,"Sankt Kjelds Gade 2, 2100 København, Denmark",2021-08-05T21:08:01Z,331830,,København,2100,11,,6 stk type 2,DK,191
144808,56.802687,9.52023,"Præstegårdsvej 9, Aars, 9600, DK",2018-03-11T18:04:42Z,144808,Vesthimmerland Municipality,Aars,9600,11,,Laderen findes stadig i hækken.  Me. der er ved at blive bygget en Lidl der hvor den stod.,DK,333
200865,55.695845,12.593647,"Folke Bernadottes Allé 45, København Ø, 2100, DK",2019-08-02T08:07:16Z,200865,,København,2100,11,,E.ON Network,DK,205
167716,55.252322,12.353079,"Strandgabsvej 29, 4673 Rødvig Stevns, Danmark",2018-10-04T07:27:10Z,167716,,Rødvig Stevns,4673,11,"1,5 DKK per kWh",400 / 230V plug,DK,1930
282361,55.646646,12.205832,"Sporstræde 45, 2640 Hedehusene, Denmark",2020-11-12T18:31:20Z,282361,,Hedehusene,2640,11,,Clever,DK,798
82913,57.474134,10.193527,"Odinsvej 25, Sindal, 9870, DK",2016-03-27T15:23:47Z,82913,Hjørring Municipality,Sindal,9870,11,E.ON (http://www.eon.dk/e-mobility/),,DK,1185
85747,55.686833,12.562108,"Peblinge Dossering 4, 2200 København N, Denmark",2016-04-23T08:23:42Z,85747,København,København,2200,11,E.ON,4x 11kW E.on,DK,504
189991,55.665048,12.512258,"Valby Torvegade, Valby, 2500, DK",2019-05-08T13:34:30Z,189991,,København,2500,11,"DKK 2,5/kWh - minimum DKK 17,5","1x CCS (24 kW)
1x Type 2 (22 kW)

Activate with https://emobility.community/ or use Plugsurfing, Monta or other roaming service.

Access to the underground parking via Annexstræde and Ved Ovnhallen.
Free parking max 2 h.",DK,258
80376,56.155078,10.20605,"Telefonsmøgen, 8000 Aarhus C, Denmark",2016-01-26T21:23:10Z,80376,Aarhus Municipality,Aarhus,8000,11,E.ON (http://www.eon.dk/e-mobility/). 3-timers begrænsning på ladepladser i tidsrummet 8-23. 6 reserved for EV,"E.ON ladenetværk. 
- 11 kW",DK,1048
295976,55.671432,12.386872,"Valdemar Hansens vej -, Glostrup, 2600, DK",2021-01-16T00:02:06Z,295976,,Glostrup,2600,11,,,DK,18
76612,55.727281,12.576975,"Strandvejen 60, 2900 Hellerup, Denmark",2015-11-20T20:17:15Z,76612,Gentofte Municipality,Hellerup,2900,11,"E.On (http://www.eon.dk/e-mobility/)
Parking only free for 2 hours.","Charging Station Virta
- 6 11kW Type2 outlets",DK,349
35767,55.437458,11.559134,"Alleen 15, 4180 Sorø, Denmark",2013-11-20T20:43:30Z,35767,Sorø Municipality,Sorø,4180,11,clever.dk,2 x 22kW,DK,244
318569,55.827545,12.342307,"Fanevænget, 3520 Farum, Danmark",2021-05-13T16:20:37Z,318569,,Farum,3520,11,,Spirii,DK,3801
269528,55.748368,12.295877,"Kongebakken, 2765 Smørum, Denmark",2020-10-02T08:40:36Z,269528,,Smørum,2765,11,Eon prices,"12 Eon chargers
Meant for Demant employees and guests",DK,235
268180,55.536074,9.487382,"Petersmindevej 12, 6000 Kolding, Danmark",2020-09-22T06:56:39Z,268180,,Kolding,6000,11,"Gratis for EWII gæster (henvendelse i receptionen). 3,0 kr/kWh ellers","(bagerst) Spirii - EWII

4 red CEE 16 A, 4 red CEE 32 A and 4. Only for Ewii visitors. Not access for the public.

230V.",DK,2652
211283,56.092081,9.757839,"Klostervej 1A, 8680 Ry, Danmark",2019-10-18T09:59:48Z,211283,,Ry,8680,11,,"Lader drevet af Aura energi. 
Et type 2 stik er forbeholdt AURA delebil. Et type 2 stik er tilgængeligt for alle med e.on ladebrik.",DK,4773
88560,55.64545,12.636552,"Hedegårdsvej 37, 2300 København S, Denmark",2016-05-29T22:23:24Z,88560,København,København,2300,11,E.ON (http://www.eon.dk/e-mobility/),,DK,1690
262856,57.040182,10.360334,"Lagunen 8, 9370 Hals, Denmark",2020-08-14T09:33:06Z,262856,,Hals,9370,11,3 DKK/kWh ,Parkeringsplads ved campingpladsen Hals Strand Camping - kør ind til højre lige før du kører ind på campingpladsens område. 2*11KW Spirii eller 1*22KW,DK,6346
155748,55.385567,10.424606,"Ørbækvej 75, 5220 Odense SØ, Danmark",2018-06-04T19:43:36Z,155748,Odense Municipality,Odense,5220,11,CLEVER,Placeret i blå p-kælder. Indkørsel fra Munkerisvej. Åben 6.30 - 21.30.,DK,987
169392,55.631263,12.580657,"Arne Jacobsens Allé 19, København S, 2300, Denmark",2018-10-23T06:56:27Z,169392,,København,2300,11,P-Hus,Charging Station Virta,DK,430
294788,55.676726,12.598747,"Bodenhoffs Pl. 7, 1430 København, Denmark",2021-01-08T16:59:19Z,294788,,København,1430,11,,Charging Station Clever A/S,DK,19
114700,57.330286,9.677161,"Ingeborgvej 2, 9480 Løkken, Denmark",2017-04-15T16:03:57Z,114700,Jammerbugt Municipality,Løkken,9480,11,50 DKK per day,,DK,9444
63171,55.656847,12.359229,"Nordmarks Allé 2, Albertslund, 2620, DK",2015-04-13T15:44:02Z,63171,Albertslund Municipality,Albertslund,2620,11,E.ON (http://www.eon.dk/e-mobility/),2x11 kw,DK,567
35691,55.250958,12.120191,"Rådhusvej 2, 4640 Faxe, Denmark",2013-11-20T20:43:20Z,35691,Faxe,Faxe,4640,11,clever.dk,Charging Station Clever A/S,DK,7164
332053,56.168632,10.728147,"Elsegårdevej 55, 8400 Ebeltoft, Danmark",2021-08-07T10:41:22Z,332053,,Ebeltoft,8400,11,"3,25 kr/kWh - VISA/MASTERCARD","Der er adgang til ladestanderen i campingpladsen åbningsperiode: påske - medio september.
Der betales med kort via hjemmesiden; www.tallyweb.dk/blushoj
Standeren er placeret i den vestlige ende af campingpladsen, tag evt. kontakt til receptionen for at få udleveret oversigtskort.
Der er toilet og bad samt gratis WiFi på campingpladsen findes desuden en lille købmand.
Adgang til udendørs pool samt legeplads mod betaling (1. juni til medio august)

2 stk. Type 2 med mulighed for 22 kW på hver samtidig.",DK,4385
125726,55.666304,12.509585,"Horsekildevej 3, 2500‎ Valby, Danmark",2017-08-19T16:45:25Z,125726,København,København,2500,11,http://www.eon.dk/e-mobility,E.ON,DK,103
316762,55.944984,9.123552,"Storegade 2, 7330 Brande",2021-04-30T11:26:02Z,316762,,Brande,7330,11,3kr/kWh - Power Fuel,Hotel Dalgas Brande,DK,472
91604,55.30985,10.817272,"Østerøvej 121, 5800 Nyborg, Denmark",2016-07-19T17:47:26Z,91604,Nyborg Municipality,Nyborg,5800,11,100DKK fixed. Or Clever subscription.,"6x type 2 outlets (Clever). Need own cable.
Charging card can be rented at reception for a fixed 100DKK.
Tesla destination chargers removed",DK,709
35643,55.836743,9.833284,"Bankagervej 111, Horsens, 8700, DK",2013-11-20T20:43:14Z,35643,Horsens Municipality,Horsens,8700,11,clever.dk,,DK,2416
335453,56.029912,12.570289,"H C Ørsteds Vej 10, 3000 Helsingør, Denmark",2021-08-27T11:56:40Z,335453,,Helsingør,3000,11,,Clever,DK,112
59410,55.673216,12.592913,"Sankt Annæ Gade 13, 1416 København K, Denmark",2014-12-30T10:02:36Z,59410,København,København,1416,11,,"Charging Station Virta
- 4 dual 11kW Type2",DK,120
124022,56.203168,9.689767,"Smingegårdsvej 15, 8600 Silkeborg, Denmark",2017-08-01T18:10:14Z,124022,Silkeborg Municipality,Silkeborg,8600,11,,,DK,4513
202665,55.968822,12.542633,"Gammel Strandvej 13, 3050 Humlebæk, Denmark",2019-08-14T12:38:43Z,202665,,Humlebæk,3050,11,Clever,Charging Station Clever A/S,DK,2490
237636,57.722953,10.589649,"Chr. Xs Vej 9, 9990 Skagen, Denmark",2020-02-29T16:44:46Z,237636,,Skagen,9990,11,Parking: 11 DKK/hour from 9 to 18 all weekdays,Charging Station Virta,DK,1046
276341,57.28491,9.94197,"Tolstrupvej 91, Brønderslev, None, DK",2020-11-04T19:55:07Z,276341,,Brønderslev,9700,11,,,DK,134
155638,55.383267,10.364587,"Kløvervænget 25, 5000 Odense, Danmark",2018-06-03T14:20:59Z,155638,Odense Municipality,Odense,5000,11,"clever.dk 
",Charging Station Clever A/S - Er placeret lige ved udkørsel fra parkeringshus.,DK,5
191229,56.80401,10.270545,"Solbjergvej 1, Hadsund, 9560, DK",2019-05-19T17:20:43Z,191229,,Hadsund,9560,11,Gratis parkering,"Solbjergvej 1.
2 x 11 kWh I midten af Øster Hurup",DK,2433
299739,56.567912,8.998686,"Katkjærvej 4, 7800 Skive, Danmark",2021-01-26T05:47:40Z,299739,,Skive,7800,11,,3x16A CE stik - 11kw,DK,2400
220240,55.66548,12.483418,"Hansstedvej 16, 2500 Valby, Denmark",2019-12-25T09:31:37Z,220240,,København,2500,11,,,DK,212
219681,57.047088,10.061945,"Vejdybet 16, Aalborg Ø, 9220, DK",2019-12-21T17:02:24Z,219681,,Aalborg,9220,11,,e.on,DK,1007
292426,55.772469,12.507565,"Klampenborgvej 234, Lyngby, 2800, DK",2021-01-05T01:06:11Z,292426,,Kongens Lyngby,2800,11,,,DK,143
60010,55.678777,12.587247,"Tordenskjoldsgade 9, 1055 København K, Denmark",2015-01-15T12:38:09Z,60010,København,København,1055,11,clever.dk,"Charging Station Clever A/S - 2 x 22kW
Gaden er ensrettet - Når du kommer fra O2 (niels Juelsgade): til højre af Holmbergsgade og til venstre af Tordenskjoldsgade",DK,223
58817,55.560662,12.231404,"Karlslunde Øst 1, Karlslunde Øst, 2690, DK",2014-12-15T11:03:50Z,58817,Greve Municipality,Karlslunde,2690,11,E.ON (http://www.eon.dk/e-mobility/),EON 50 kW CCS/CHAdeMO and 43 kW Type 2 triple charger,DK,11
278545,55.643622,12.13629,"Vestre Hedevej 24 23, Roskilde, 4000, DK",2020-11-04T20:45:04Z,278545,,Roskilde,4000,11,,,DK,864
199165,55.864969,9.825551,"170 6, 8700 Horsens, Danmark",2019-07-22T18:52:11Z,199165,,Horsens,8700,11,,230V stik m. Jord til hotellets gæster. Der skal selv medbringes ladekabel,DK,1422
292450,56.889201,10.220636,"Vildmosevej 100, Storvorde, 9280, DK",2021-01-05T01:06:45Z,292450,,Storvorde,9280,11,,,DK,127
197907,55.726269,12.579763,"Tuborg Havnevej 4, 2900 Hellerup",2019-07-14T14:50:38Z,197907,,Hellerup,2900,11,"DKK 2,50/kWh - minimum DKK 17,50","SPERTO
1x CCS (24 kW)
1x Type 2 (22 kW)
Located in parking garage level (-1)
Pay with Plugsurfing or any other roaming service.",DK,247
208144,54.923247,9.80619,"Grundtvigs Alle 195, 6400 Sønderborg, Denmark",2019-09-23T05:44:27Z,208144,,Sønderborg,6400,11,,"Charging Station Virta
- 6 x 11kW type2",DK,1129
84531,55.548835,13.033179,"Lockarpsvägen 4, Oxie, 238 41, SE",2016-04-02T15:50:20Z,84531,,Malmö,238 41,11,"Eon Card, app og website needed to activate and pay.","50kW DC, 22kW AC charger with fixed cables in front of Car Wash.",SE,7137
338703,56.059736,10.162112,"Nymarks Alle 127, 8320 Mårslet, Denmark",2021-09-16T14:04:16Z,338703,,Mårslet,8320,11,,,DK,4344
253836,56.138999,10.185661,"Kongsvang Alle 30, 8000 Århus C, Danmark",2020-08-03T09:05:48Z,253836,,Aarhus,8000,11,,,DK,313
43433,55.367138,10.352308,"Sanderumvej 16, 5250 Odense SV, Denmark",2014-02-22T11:14:39Z,43433,Odense Municipality,Odense,5250,11,clever.dk,,DK,586
68008,55.514301,9.39921,"Esbjerg Motorvejen 646, Kolding, 6000, DK",2015-07-26T08:35:32Z,68008,Kolding Municipality,Kolding,6000,11,E.ON (http://www.eon.dk/e-mobility/),,DK,9981
144928,55.729587,12.388544,"Lautrupvang 6, 2750 Ballerup, Danmark",2018-03-13T16:47:52Z,144928,Ballerup Municipality,Ballerup,2750,11,,"8 Clever type 2 22kW udtag, samt fire røde CEE udtag til højre for Ateas hovedindgang.",DK,560
89327,56.781641,8.234897,Vesterhavsvej,2016-06-13T20:22:29Z,89327,Thisted Municipality,Vestervig,7770,11,,Tal med købmanden ,DK,786
246734,55.726714,8.241968,"Strandvejen 234, Henne, Denmark, 6854",2020-06-10T22:13:06Z,246734,,Henne,6854,11,,,DK,8811
217405,55.678836,12.456704,"Rødovre Centrum 58, 2610 Rødovre, Danmark",2019-12-05T09:05:08Z,217405,,Rødovre,2610,11,,Clever 3 stk i Parkering -2,DK,46
171968,55.040351,10.615472,"Eskærvej 69 GO2Green Tåsinge, 5700 Svendborg",2018-11-17T14:48:35Z,171968,,Svendborg,5700,11,,,DK,3048
130781,55.67267,12.592654,"Mikkel Vibes Gade 5, 1417 København K, Danmark",2017-10-01T08:59:46Z,130781,København,København,1417,11,Clever,,DK,132
72907,55.032648,9.418024,"Stegholt 35, 6200 Aabenraa, Denmark",2015-10-12T21:42:18Z,72907,Aabenraa Municipality,Aabenraa,6200,11,,Blå cee stik. på p-pladsen overfor den store bygning. markeret til elbiler,DK,11
63095,55.678057,11.088475,"Banegårdspladsen 2, 4400 Kalundborg, Denmark",2015-04-11T15:35:36Z,63095,Kalundborg Municipality,Kalundborg,4400,11,clever.dk,Charging Station Clever A/S,DK,257
64511,56.180971,10.196795,"Kalmargade 31, 8200 Aarhus, Denmark",2015-05-11T15:18:57Z,64511,Aarhus Municipality,Aarhus,8200,11,,Charging Station Virta,DK,1327
240037,56.98343,10.204152,"Drosselvej 7, 9280 Storvorde, Denmark",2020-03-23T18:36:44Z,240037,,Storvorde,9280,11,"2,5 DKK/kWh","11 kW. Laderen er ikke umiddelbart synlig fra vejen. 

Opladning kan kun startes efter aftale. 

Betaling på mobilepay 28725401.",DK,3263
70944,56.091923,8.242411,"Godthaabsvej 15, Ringkøbing, 6950, DK",2015-09-11T22:37:48Z,70944,Ringkøbing-Skjern Municipality,Ringkøbing,6950,11,https://clever.dk/uk/,"Clever 50 kW DC, 43 kW AC",DK,745
312157,56.142005,9.15523,"Strøget 36, 7430 Ikast",2021-03-31T07:40:54Z,312157,,Ikast,7430,11,,Clever 22 kw,DK,1861
291761,55.668639,12.605765,Vermlandsgade 41 2300 København S Danmark,2020-12-30T20:16:12Z,291761,,København,2300,11,,"300 kW

https://www.circlek.dk/el",DK,83
298268,55.73,12.441,"Herlev Ringvej 75, Herlev, 2730, DK",2021-01-21T01:11:09Z,298268,,Herlev,2730,11,,,DK,289
143876,55.699979,12.588868,"Holsteinsgade 55, København Ø, 2100, DK",2018-02-25T12:00:07Z,143876,København,København,2100,11,Eon,11 kW,DK,563
308331,56.031557,9.307543,"Engvej 4, 7361 Ejstrupholm, Danmark",2021-03-11T21:41:52Z,308331,,Ejstrupholm,7361,11,3.00 kr/kWh,Betaling med mobilepay. Ring inden opladning.,DK,18619
321473,55.604768,12.66051,"A. P. Møllers Allé 55, 2791 Dragør, Danmark",2021-06-02T08:27:41Z,321473,,Dragør,2791,11,,,DK,570
86497,56.355918,9.60235,"Bjerringbrovej 44, 8850 Bjerringbro, Denmark",2016-05-02T20:46:00Z,86497,Viborg Municipality,Bjerringbro,8850,11,Free with entrance to museum paid,Ask for RFID when buying tickets to the museum. This is 2x Clever Type2 but you can not use a normal Clever subscription. Only the museums RFID will work.,DK,5269
249651,57.290751,11.062195,"Himmerigvejen 1A, 9940 Læsø, Danmark",2020-07-04T18:05:48Z,249651,,Læsø,9940,11,Man betaler for den strøm man bruger - pris ca. 2kr pr kW ,"11 kW hjemmelader installeret af Clever

Boksen har IKKE fastmonteret type 2 kabel, så det skal man selv have med. ",DK,7745
44369,55.844996,9.231357,"Fredensgade 1, 7323 Give, Denmark",2014-03-11T14:51:08Z,44369,Vejle Municipality,Give,7323,11,Free charging while shopping.,"Type 2 - 11 or 22kW 
Single type 2 charger.",DK,1330
59369,55.671439,12.387072,"Kindebjergvej, 2600 Glostrup, Denmark",2014-12-29T15:29:59Z,59369,Glostrup Municipality,Glostrup,2600,11,clever.dk,6 x 22kw,DK,18
272615,56.62894,9.818476,"Jyllandsvej 14, 9500 Hobro, Danmark",2020-10-27T21:00:45Z,272615,,Hobro,9500,11,,3 stk clever stander. Primært til ansatte,DK,1549
193494,56.030787,12.592127,"Kierboesvej 9, 3000 Elsinore, Denmark",2019-06-09T00:46:00Z,193494,,Helsingør,3000,11,,,DK,831
68500,55.277872,14.802783,"Kæmpestranden 12, Allinge, 3770, DK",2015-08-04T15:30:21Z,68500,Bornholm,Allinge,3770,11,E.ON (http://www.eon.dk/e-mobility/),Der er reserveret to parkeringspladser til opladning.,DK,243
79601,55.671038,12.52974,"Roskildevej 10, 2000 Frederiksberg, Denmark",2016-01-10T18:22:09Z,79601,Frederiksberg Municipality,Frederiksberg,2000,11,,"Charging Station Virta
- 6x11kW",DK,278
284812,56.447927,9.406316,"Fischers Pl., Viborg, 8800, DK",2020-11-14T07:40:38Z,284812,,Viborg,8800,11,"DKK 2,50/kWh","1x CCS (24 kW)
4x Type 2 (22 kW)
Pay with Plugsurfing or any other roaming service.",DK,336
134881,55.692368,12.103204,"Frederiksborgvej 399, 4000 Roskilde",2017-11-08T21:38:25Z,134881,Roskilde Municipality,Roskilde,4000,11,E.ON (http://www.eon.dk/e-mobility/),2x11kW,DK,3358
96820,55.387984,11.361596,"Trafikcenter Allé 6, Slagelse, 4200, DK",2016-10-05T12:18:03Z,96820,Slagelse Municipality,Slagelse,4200,11,E.On pricing applies,"E.ON Triple charger and a dual 11kW type2 charge pole next to Tesla Superchargers 

Kan ikke anvendes samtidig.",DK,23
52244,56.783322,9.695214,"Industriparken 2, Nørager, 9610, DK",2014-07-14T11:03:28Z,52244,Rebild Municipality,Nørager,9610,11,clever.dk,Clever Charging Station,DK,106
35633,55.723848,9.583679,"Solkilde Alle 2, 7100 Vejle, Danmark",2013-11-20T20:43:14Z,35633,Vejle Municipality,Vejle,7100,11,https://clever.dk/uk/,,DK,497
295356,55.696123,12.573044,"Ryesgade 89-91, København, 2100, DK",2021-01-14T00:33:43Z,295356,,København,2100,11,,,DK,298
80962,55.48939,12.163003,"Servicevej 2, Køge, 4600, DK",2016-02-08T23:16:08Z,80962,Køge Municipality,Køge,4600,11,E.ON (http://www.eon.dk/e-mobility/),Next to Tesla Supercharger Køge,DK,61
59008,56.182626,10.103645,"Agerøvej 7, 8381 Tilst, Denmark",2014-12-19T11:07:46Z,59008,Aarhus Municipality,Tilst,8381,11,clever.dk,"Charging Station Clever A/S - 50kW CCS, 22kW AC Type 2",DK,1085
73143,55.071996,9.347515,"Brunde Vest 17, 6230 Rødekro, Denmark",2015-10-17T10:28:57Z,73143,Aabenraa Municipality,Rødekro,6230,11,,Gratis / free,DK,1240
304203,54.767729,11.869802,"Dronningensgade 24, 4800 Nykøbing F.",2021-02-14T03:55:16Z,304203,,Nykøbing Falster,4800,11,,,DK,266
309399,55.784236,12.52148,"Building 402, 2800, 2800 Kongens Lyngby, Denmark",2021-03-18T17:14:20Z,309399,,Kongens Lyngby,2800,11,,Charging Station Liikennevirta Oy (Virta),DK,222
252278,55.743427,12.498804,"Rådhus Allé 7, 2860 Søborg, Danmark",2020-07-24T14:46:54Z,252278,,Søborg,2860,11,E.ON,"E.ON Fire 22kW standere, som i en snæver vending kan tilgås fra den anden side af hækken, hvis de er ice'd.",DK,119
177235,55.614611,12.472763,"Mågeparken, Stamholmen 143B, 2650 Hvidovre, Denmark",2019-01-11T10:17:24Z,177235,,Hvidovre,2650,11,E.ON prices applies,,DK,1320
90893,55.319747,10.810305,"119 Christianslundsvej, 5800 Nyborg, Denmark",2016-07-08T21:34:12Z,90893,Nyborg Municipality,Nyborg,5800,11,,Free for hotel guests,DK,261
212660,55.664198,12.51488,"Mellemtoftevej 8, 2500 Valby, Danmark",2019-10-29T19:49:20Z,212660,,København,2500,11,,,DK,258
96556,55.450864,11.545005,"Abildvej 100, 4180 Sorø, Denmark",2016-10-01T11:47:41Z,96556,Sorø Municipality,Sorø,4180,11,,2x 22kW Free for hotel guests. Requires activation card from the reception (http://www.comwell.dk/hoteller/opladning-af-din-elbil-hos-comwell/),DK,2485
322046,55.66666,12.397625,"Højvangsvej 65-71, 2600 Glostrup",2021-06-05T21:45:31Z,322046,,Glostrup,2600,11,,"Clever, P-plads ved indkørsel til Heggelunds Allé",DK,331
119476,56.217606,9.729918,"Lille Amerika 10, 8883 Gjern, Denmark",2017-06-07T23:04:32Z,119476,Silkeborg Municipality,Gjern,8883,11,,"For resort guests: https://www.landal.dk/park/sohojlandet
6 Clever 22 kW AC chargers. Notice! Not found in your roaming apps (yet). Activate via the Clever app, by entering the number found on the charger or by a roaming tag.
Notice! The two Tesla Destination Chargers is also replaced by Clever!",DK,6667
170387,55.743942,12.502808,"Solnavej 32, Søborg, None, DK",2018-11-01T07:34:58Z,170387,,Søborg,2860,11,E.On pricing ,Lader måske med op til 22kW - se billede.,DK,376
54560,56.357874,8.614862,Slotsgade 2 7500 Holstebro Denmark,2014-09-10T17:51:31Z,54560,Holstebro Municipality,Holstebro,7500,11,,3 Blue 16 Amps CEE in a Metal box. Free parking for 4 hours in ev others 1 hours. Map marker location is precise.,DK,227
134013,56.149696,9.767071,"Silkeborgmotorvejen 242A, Låsby, 8670, DK",2017-10-28T23:20:02Z,134013,Skanderborg Municipality,Låsby,8670,11,E.ON,,DK,8332
336091,55.496886,9.737928,"Østre Hougvej 55, 5500 Middelfart, Denmark",2021-08-31T14:12:56Z,336091,,Middelfart,5500,11,Betaling med CLEVER-kort eller app.,,DK,564
35656,55.70887,9.54458,"Østerbrogade 27, Vejle, 7100, DK",2013-11-20T20:43:16Z,35656,Vejle Municipality,Vejle,7100,11,https://clever.dk/uk/,"2 stands/standere.

1x combo CCS/CHAdeMO 50kW charger/lader, 1 car at a time/bil af gangen.
2x Type 2 sockets/stikkontakter (22kW to share?/til at dele?)",DK,477
285943,56.121789,9.177016,"Finsensgade 3, 7430 Ikast",2020-11-20T09:45:44Z,285943,,Ikast,7430,11,,2* Clever. Ameneties at McDonalds across the street.,DK,801
117915,54.778378,11.880572,"Stubbekøbingvej 150, 4800 Nykøbing Falster, Denmark",2017-05-19T23:50:13Z,117915,Guldborgsund Municipality,Nykøbing Falster,4800,11,The hotel is reported to charge 120 DKK no matter how little you charge,"2 Tesla Connectors, up to 22kW.
Available for customers. Please see front desk.",DK,427
110233,54.786129,9.436841,"Süderhofenden 6–8, 24937‎ Flensburg, Germany",2017-02-20T13:09:08Z,110233,,FL,24937,11,"APCOA rates (2€/h or 12€/day, accept Danish coins too)
Charging is f",11kW Type2 charger right inside APCOA Patking,DE,515
80714,57.450092,9.998388,"Bipsensgade 37, 9800 Hjørring, Denmark",2016-02-03T19:29:16Z,80714,Hjørring Municipality,Hjørring,9800,11,E.ON (http://www.eon.dk/e-mobility/),,DK,854
194122,55.065823,9.377667,"Kresten Philipsens Vej, 6200 Aabenraa, Danmark",2019-06-14T16:17:10Z,194122,,Aabenraa,6200,11,Clever.dk,"Nederste P-dæk - 6 stk Clever ladestationer
Toiletter findes på sygehuset, hvor der også er en café.",DK,1522
326259,54.777247,9.235431,"Schmiedeweg 1, 24980 Wallsbüll, Germany",2021-07-03T09:36:33Z,326259,,Wallsbüll,24980,11,,,DE,4164
54691,56.71734,8.469051,Fjordstræde 1 Doverodde 7760 Hurup,2014-09-12T10:31:15Z,54691,Thisted Municipality,Hurup,7760,11,,,DK,2022
181297,55.903547,12.277621,"Lyngevej, 3400 Hillerød, Danmark",2019-02-18T22:35:23Z,181297,,Hillerød,3400,11,Clever,,DK,2912
329217,55.749529,12.319132,Måløv Hovedgade 60,2021-07-21T10:11:02Z,329217,,Måløv,2760,11,3 kr. pr KWh ,"Man skal bestille tid i app'en PowerFuel, læs mere på www.PowerFuel.dk",DK,860
109696,57.037745,9.924296,"Blytækkervej 3-7, Aalborg, 9000, DK",2017-02-12T12:53:08Z,109696,Aalborg Municipality,Aalborg,9000,11,E.ON,"Beside the road, by a large gray hangar
The charger is new smartcharger and outputs 22kW shared between the users.",DK,835
145628,55.870471,9.886269,"Kollegievænget 19–21, 8700 Horsens, Denmark",2018-03-24T12:05:28Z,145628,Horsens Municipality,Horsens,8700,11,E.On,"Dual 11kW Type2 charge pole
Reserved EV spots but observe parking conditions!",DK,152
312156,56.845923,8.530966,"Svinget 1, 7752 Snedsted",2021-03-31T07:27:48Z,312156,,Snedsted,7752,11,"Kræver Clever abonnenment
",Clever 22 kw,DK,4812
143275,55.733448,9.126618,"Åstvej 10, Billund, 7190, DK",2018-02-16T14:12:49Z,143275,Billund Municipality,Billund,7190,11,"Parking free.
Charging fees: www.clever.dk","100m from Legoland, 700m from Lalandia.
Clever network. See rates on www.clever.dk",DK,154
80837,55.505247,9.736165,"Havnegade 6, Middelfart, 5500, Denmark",2016-02-05T22:44:40Z,80837,Middelfart Municipality,Middelfart,5500,11,,"Charging Station Virta
- Two charge poles. Two 11kW Type2 sockets in each.",DK,202
341374,55.491471,11.975364,Bækgårdsvej 35,2021-10-01T19:19:59Z,341374,,Borup,4140,11,"3,50",,DK,9339
66858,56.158767,10.204695,"Klostergade 43, 8000 Aarhus, Denmark",2015-07-03T08:17:28Z,66858,Aarhus Municipality,Aarhus,8000,11,Parking fees apply 7 days a week,"Charging Station Virta
- Three dual Type2 charge poles 3*16A/11kW",DK,487
252516,54.865601,9.891977,"Sønderbygade 37, 6470 Sydals, Danmark",2020-07-26T08:42:24Z,252516,,Sydals,6470,11,,"Clever lader ved huset, kontakt mig inden brug på 22958321",DK,25710
309960,55.676309,12.550569,"Forhåbningholms Alle 18, Frederiksberg, 1904, Denmark",2021-03-22T18:56:30Z,309960,,Frederiksberg,1904,11,,Charging Station Clever A/S,DK,881
162616,55.785312,9.675446,"Kilde Allé 4, Hedensted, 8722, DK",2018-08-12T15:23:52Z,162616,Hedensted Municipality,Hedensted,8722,11,"Free parking, but charging requires eon RFID card",Placed on carpark for a production company. Don’t expect any amenities.,DK,837
321331,56.545675,8.287032,Nyvang 8 7620 Lemvig,2021-06-01T17:11:26Z,321331,,Lemvig,7620,11,,Clever Type 2 AC 22kW,DK,1538
315490,55.039383,9.794205,"Skolevej 4, 6430 Nordborg, Denmark",2021-04-22T11:55:12Z,315490,,Nordborg,6430,11,,"Inside Udviklinghuset parking, on Skolevej side",DK,774
331166,55.664688,12.576565,"Snorresgade 9, 2300 København",2021-08-01T16:24:37Z,331166,,København,2300,11,,Merkur Andelskasse by Spiiri,DK,119
96560,55.308116,11.183444,"Korsør Lystskov 30, 4220 Korsør, Denmark",2016-10-01T11:53:38Z,96560,Slagelse Municipality,Korsør,4220,11,,2x 22kW Free for hotel guests (http://www.comwell.dk/hoteller/opladning-af-din-elbil-hos-comwell/),DK,5852
276426,57.099996,9.522679,"Stationsvej 12, Brovst, None, DK",2020-11-04T19:57:19Z,276426,,Brovst,9460,11,,,DK,1025
293390,55.942874,8.520076,"Ånumvej 28, Skjern, None, DK",2021-01-05T01:21:39Z,293390,,Skjern,6900,11,,,DK,132
334194,56.206448,10.191404,"P. O. Pedersensvej 14A, 8200 Aarhus N",2021-08-19T19:58:54Z,334194,,Risskov,8200,11,3.28 DKK/kWh via CloudCharge app,"Parking. Entry right next to the roundabout.

4 x 22 kW

Bring your own cable.",DK,1547
292435,55.679096,12.497578,"Mørk Hansens Vej 2-8, Frederiksberg, 2000, DK",2021-01-05T01:06:30Z,292435,,Frederiksberg,2000,11,,,DK,210
326127,55.665089,12.396758,"Solvej 2, 2600 Glostrup, Denmark",2021-07-02T09:20:07Z,326127,,Glostrup,2600,11,,,DK,412
159732,55.262575,9.70717,"Aarøsund Havn 28, 6100 Haderslev, Danmark",2018-07-14T14:02:07Z,159732,Haderslev Municipality,Haderslev,6100,11,,,DK,14837
305284,54.66331,11.730992,"Strandvejen 12, 4880 Nysted",2021-02-21T02:42:14Z,305284,,Nysted,4880,11,,,DK,15797
253731,56.22645,10.16326,"Randersvej 400, 8200 Århus N, Danmark",2020-08-02T17:08:03Z,253731,,Aarhus,8200,11,6 kr./kWh,Clever ladestation,DK,906
62738,56.17812,10.06543,"Østjyske Motorvej 472, 8381 Tilst, Denmark",2015-04-02T05:25:32Z,62738,Aarhus Municipality,Tilst,8381,11,E.ON (http://www.eon.dk/e-mobility/),"Standere: 1
Ladere: 3",DK,5520
134770,55.467134,8.442082,"Strandbygade 3, 6700 Esbjerg, Denmark",2017-11-07T15:40:32Z,134770,Esbjerg Municipality,Esbjerg,6700,11,,"Parking garage for hotel, paid. A single Red 3 phase 16A CEE socket. https://www.scandichotels.com/hotels/denmark/esbjerg/scandic-olympic/parking",DK,293
187326,55.502712,9.704834,"Hindsgavl Alle 2, 5500 Middelfart, Danmark",2019-04-14T15:29:55Z,187326,,Middelfart,5500,11,"DKK 2,50/kWh","SPERTO 
There are two plugs that go up to 22 kW totally. Free parking, free coffee and free access to the exhibition of building materials and products.
Activate with Plugsurfing or any other roaming platform.",DK,1000
194940,55.493772,9.738343,"Østre Hougvej 101, 5500 Middelfart, Denmark",2019-06-22T01:28:18Z,194940,,Middelfart,5500,11,,EON,DK,76
35754,55.47773,12.169408,"Lykkebækvej 1, 4600 Køge, Denmark",2013-11-20T20:43:28Z,35754,Køge Municipality,Køge,4600,11,clever.dk,Charging Station Clever A/S,DK,2328
218329,55.753057,12.541798,"Brogårdsvej 12, 2820 Gentofte, Danmark",2019-12-11T18:11:51Z,218329,,Gentofte,2820,11,Clever.dk,"Første to skrå parkeringspladser ved indkørsel til stationen. 
3 timers tidsbegrænsning i tidsrummet 8-22 gældende mandag-lørdag.",DK,1705
186269,55.73381,9.132066,"Åstvej 20, Billund, 7190, DK",2019-04-04T17:32:52Z,186269,,Billund,7190,11,Eon.dk,"Eon.dk charging columns. EasyPark app can start them.
4x11kW.
Parking restrictions apply.",DK,398
267968,55.676155,12.436723,"Kaffevej 16, 2610 Rødovre, Danmark",2020-09-20T06:27:05Z,267968,,Rødovre,2610,11,,"Send sms på mobil 27901233.
Betaling via MobilePay eller kontakter.",DK,2143
290391,54.76173,9.191671,"Osterfeld 2, 24980 Schafflund, Germany",2020-12-19T12:32:14Z,290391,,Schafflund,24980,11,,"Type 2, CCS, Chademo",DE,4163
231929,55.278337,10.105763,"Østergaards Pl. 11, Glamsbjerg, 5620, Denmark",2020-02-13T14:55:08Z,231929,,Glamsbjerg,5620,11,Abonnement hos Clever,Clever Type 2,DK,7018
346033,54.971329,11.939639,"XWCQ+GV Vordingborg, Denmark",2021-11-03T10:43:55Z,346033,,Vordingborg,4760,11,,,DK,5062
129572,55.783646,12.3766,"Stiager 2, 3500 Værløse, Danmark",2017-09-22T10:17:59Z,129572,Furesø Municipality,Værløse,3500,11,EON.dk,"E.ON Network.
Quickcharger and AC charger in front of City Hall.
45 min limitation at QuickCharger 
3h limit during business hours at AC destination charger. One of the spots reserved for ""Nordsjællandsk Delebil"".
The AC charger is capable 22kW if alone. Otherwise 11kW at each plug. 

Many more E.ON chargers behind the city hall. 

Located next to ""Værløse Bymidte"" shopping center (across the street) and very close to Værløse S-train station that has connections to Copenhagen.  
Toilets in the town hall.",DK,76
137855,55.707576,12.557866,"Rønnegade 7, København Ø, 2100, DK",2017-12-11T12:01:59Z,137855,København,København,2100,11,http://www.eon.dk/e-mobility,Charging and parking can be paid together with the app Easypark. E.ON subscription customers can use RFID card and pay separately for parking with Easypark app.,DK,230
200401,55.365941,10.353674,"Assensvej, 5250 Odense SV, Danmark",2019-07-30T14:35:01Z,200401,,Odense,5250,11,,Karvil / Clever ,DK,586
264291,55.658152,12.350805,"Alberts Vænge 6, 2620 Albertslund, Denmark",2020-08-24T10:39:28Z,264291,,Albertslund,2620,11,"DKK 2,50 / kWh","SPERTO 
2 x Type 2 (22 kW) AC Dual Charger

Pay with IONITY app or use Plugsurfing or any other roaming service.",DK,904
77835,55.676106,12.560182,"Herholdtsgade 1, 2065 Copenhagen ",2015-12-16T23:20:40Z,77835,København,København,1601,11,,Charging Station Virta,DK,88
96562,56.833357,9.84478,"Rebildvej 36, 9520 Skørping, Denmark",2016-10-01T11:58:51Z,96562,Rebild Municipality,Skørping,9520,11,,2x 22kW Free for hotel guests (http://www.comwell.dk/hoteller/opladning-af-din-elbil-hos-comwell/) ,DK,2390
191867,56.187513,9.575874,"Randersvej 6A, 8600 Silkeborg, Danmark",2019-05-25T12:08:42Z,191867,,Silkeborg,8600,11,e-on,11Kw e-on,DK,1256
46899,54.910453,9.786423,"Nørrebro 1, 6400 Sønderborg, Denmark",2014-05-17T08:56:55Z,46899,Sønderborg Municipality,Sønderborg,6400,11,clever.dk,4x22kw,DK,371
325830,55.216523,11.752221,"Ærøvej 2, 4700 Næstved, Danmark",2021-06-30T15:56:37Z,325830,,Næstved,4700,11,"2,25 dkk/kwh",22kw AC charger. Need app PowerFuel and booking in advance is mandatory through the app,DK,2546
168474,56.394277,9.443218,"Århusvej 3, 8800 Viborg, Danmark",2018-10-12T20:51:18Z,168474,,Viborg,8800,11,,Only for motel guests. The hosts will arrange for an extension cord having a standard DK wall outlet (note different from Schuko). Bring your own adaptor...,DK,5732
318977,55.345299,10.796023,"Strandvænget (Nyborg Kommune), 5800 Nyborg, Denmark",2021-05-16T13:57:11Z,318977,,Nyborg,5800,11,,2 type2 at least 11kW on Clever network.,DK,3819
214472,54.927189,9.797389,"Ellegårdvej 8, 6400 Sønderborg, Denmark",2019-11-11T20:46:26Z,214472,,Sønderborg,6400,11,,Eon 11kW x 4,DK,460
219505,55.059892,10.60917,"Ramsherred, 5700 Svendborg, Danmark",2019-12-20T12:52:39Z,219505,,Svendborg,5700,11,Free for now.,Just connect and Press Start,DK,192
286885,56.167887,10.193314,"Gustav Wieds Vej 10, 8000 Aarhus C",2020-11-28T14:44:08Z,286885,,Aarhus,8000,11,E.On,,DK,545
214922,55.859307,9.838712,"Blumersgade 3-5, Horsens, 8700, DK",2019-11-15T16:46:34Z,214922,,Horsens,8700,11,,,DK,825
293522,55.369881,10.455144,"Munkehatten 1C, Odense SØ, 5220, DK",2021-01-05T01:24:43Z,293522,,Odense,5220,11,3 kr. pr. KW ,Villakvarter,DK,47
169064,55.892152,10.596392,"Staunsvej 3, 8305 Samsø, Dänemark",2018-10-19T05:00:10Z,169064,,Samsø,8305,11,4 kr pr kWh ,,DK,5837
284837,55.679161,12.573349,"Dyrkøb 3, 1166 København, Denmark",2020-11-14T15:37:26Z,284837,,København,1166,11,,Charging Station Virta,DK,683
328392,55.41366,10.341797,"Hans Egedes Vej 2A, 5210 Odense, Denmark",2021-07-16T09:51:10Z,328392,,Odense,5210,11,,,DK,921
305286,54.87079,11.745132,"Guldborgvej 350, 4862 Guldborg",2021-02-21T02:49:35Z,305286,,Guldborg,4862,11,,,DK,10312
268436,55.845402,8.279026,"Vester Fælled, Hemmet, 6893, DK",2020-09-23T20:20:15Z,268436,,Hemmet,6893,11,"DKK 2,75/kWh","Forbeholdt feriecentrets gæster
Reserved for guests of the centre

Use Plugsurfing or any other roaming service to activate

Danland Bork havn",DK,10569
336351,55.07234,9.362595,"Kometvej 22, 6230 Rødekro, Denmark",2021-09-01T20:33:34Z,336351,,Rødekro,6230,11,,,DK,639
35674,55.648987,12.550941,"Støberigade 12, København, 2450, DK",2013-11-20T20:43:17Z,35674,København,København,2450,11,clever.dk,,DK,348
276677,55.649762,12.530358,"Borgmester Christiansens Gade 8, København SV, None, DK",2020-11-04T20:02:57Z,276677,,København,2450,11,Eon,,DK,525
248659,56.491266,8.594552,Smedegade 9,2020-06-26T14:45:39Z,248659,,Struer,7600,11,"DKK 3,50 (€ 0,50)","Clever A/S. 22 kW DC. The charger is located on the opposite side of Smedegade 7, near a bus stop.",DK,158
118734,55.593049,12.353397,"Hejren 23, 2670 Greve",2017-05-30T19:25:31Z,118734,Greve Municipality,Greve,2670,11,,"Tesla destination charging station. Pay for a Tally card in the harbour office machine right across the road. If you don’t already have the tally card it will be outrageously expensive to charge here. 
There are al sorts of plugs to connect to if you don’t use the Type2 charger",DK,2454
45818,57.459805,9.991101,"Vendelbopladsen 1, 9800 Hjørring, Denmark",2014-04-17T17:21:02Z,45818,Hjørring Municipality,Hjørring,9800,11,,"Charging Station Virta
- 6 pladser som ligger attraktivt ift. gågaden. Er ofte optaget af ICE biler.",DK,37
320032,55.820324,9.340718,"Håndværkervej 1, 7323 Give, Danmark",2021-05-24T12:10:04Z,320032,,Give,7323,11,Unknown,Betaling via spirii,DK,1314
292027,55.699027,12.579828,"Rosenvængets Allé 9, 2100 København, Denmark",2021-01-02T11:16:24Z,292027,,København,2100,11,,Charging Station Clever A/S,DK,209
231933,55.024264,9.42179,"Skelbækvej, 6200 Aabenraa, Danmark",2020-02-13T15:09:49Z,231933,,Aabenraa,6200,11,Clever abonnementer. ,Eget type 2 kabel skal benyttes. ,DK,451
241173,56.464015,10.015377,"Fyensgade 1, 8900 Randers, Danmark",2020-04-09T18:45:37Z,241173,,Randers,8900,11,,Charging Station Virta,DK,1279
333129,55.646841,12.54171,"Borgmester Christiansens gade 59, 2450 København S",2021-08-13T10:26:43Z,333129,,København,2450,11,,Circle K 3x300kW (6x150kw),DK,282
231603,55.560691,12.231572,"Køge Bugt Motorvejen 295B, 2690 Karlslunde, Denmark",2020-02-10T22:01:35Z,231603,,Karlslunde,2690,11,6.10 DKK per kWh (about € 0.80 per kWh),175(145) kW CCS Powered by E.ON Drive & Clever,DK,3364
165388,56.442601,9.3938,"Nellikevej 2, 8800 Viborg, Danmark",2018-09-08T12:37:32Z,165388,Viborg Municipality,Viborg,8800,11,,"Det er 'ok' at kunder ved Street mekka, lader imens de træner.

'OK' with clerk at the reception, that paying guests use the plug.",DK,477
269503,56.379765,10.503042,"Ryomgård St. (Syddjurs Kom), 8550 Ryomgård, Denmark",2020-10-02T06:07:01Z,269503,,Ryomgård,8550,11,,Clever.dk,DK,5141
58787,55.660174,12.285454,"Mårkærvej 15, Taastrup, 2630, DK",2014-12-14T14:45:53Z,58787,Høje-Taastrup Municipality,Taastrup,2630,11,"5,8 dkr / kWh","This is not a service for IKEA customers unless they happen to be E.ON subscribers...
Free power, if you use EasyPark app!!

4 x 11 kW Charging Station Virta",DK,2549
160436,56.226657,10.572185,"Nationalpark Mols Bjerge, Strandkærvej 7, 8400 Ebeltoft, Danmark",2018-07-19T20:04:32Z,160436,Syddjurs Municipality,Ebeltoft,8400,11,,,DK,2614
324180,56.154211,9.560007,Vejlsøvej 51,2021-06-19T19:00:15Z,324180,,Silkeborg,8600,11,,,DK,659
319805,54.778166,9.416125,"Friesische Str. 169, 24937 Flensburg, Tyskland",2021-05-22T12:44:29Z,319805,,FL,24937,11,,"DC CCS 50kW, DC CHAdeMO 50kW, AC Type2 22kW

Follow screen instructions for charging.",DE,715
232123,56.784518,8.835511,"Limfjordsvej 97, 7900 Nykøbing Mors, Denmark",2020-02-14T18:46:56Z,232123,,Nykøbing Mors,7900,11,,Ved næstsidste parkeringslomme,DK,2280
337012,55.051208,9.501284,"Skovskifte 131, Skarrev 6200 Aabenraa ",2021-09-05T20:25:02Z,337012,,Aabenraa,6200,11,"Betaling / Payment / Zahlung 
via MONTA app ","Parkering på vejen eller betondækket
Parken an der Strasse 
Park at the roadside",DK,9538
58819,55.393276,10.189021,"Kildebjerg Syd 1, Vissenbjerg, 5492, DK",2014-12-15T11:11:01Z,58819,Assens Municipality,Vissenbjerg,5492,11,E.ON (http://www.eon.dk/e-mobility/),50kW CHAdeMO 50kW CCS 43kW Type 2,DK,2780
250812,54.979922,9.655464,"Langbro 7, 6400 Sønderborg, Danmark",2020-07-13T13:12:38Z,250812,,Sønderborg,6400,11,,"Charging Station Virta
- På p-pladsen 22 kW",DK,9579
160044,55.193999,9.075816,"Brundtland Allé 3, 6520 Toftlund, Denmark",2018-07-17T18:09:38Z,160044,Tønder Municipality,Toftlund,6520,11,,,DK,9161
118962,55.683177,12.515287,"Dalgas Have 15, Frederiksberg, None, Denmark",2017-06-02T17:25:26Z,118962,Frederiksberg Municipality,Frederiksberg,2000,11,"Local parking restrictions apply.
E.ON (http://www.eon.dk)",Charging Station Virta,DK,832
339257,55.914706,11.674854,"Havnevej 30a, 4500 Nyk. Sj.",2021-09-19T14:18:18Z,339257,,Nykøbing Sjælland,4500,11,"2,75 kr. pr. kWh. 
Betal med PowerFuel app’en.","4 stk. 22 kWh. offentlige ladestandere.
(Administreret af PowerFuel - hent app’en, og lad din bil)",DK,177
340466,55.793287,12.506348,"Hellerup Træfældning, Bygtoften 6, 2800 Kongens Lyngby, Denmark",2021-09-26T18:41:17Z,340466,,Kongens Lyngby,2800,11,,,DK,1822
58509,56.157261,10.191457,"Silkeborgvej 4, 8000 Aarhus, Denmark",2014-12-06T11:30:34Z,58509,Aarhus Municipality,Aarhus,8000,11,clever.dk,Charging Station Clever A/S,DK,556
225859,55.258792,12.001742,"Rønnede Golfklub, Højen, 4683 Rønnede, Danmark",2020-01-25T15:43:23Z,225859,,Rønnede,4683,11,Ukendt,,DK,1838
335285,55.695444,11.746296,"Oldvejen 25, 4300 Holbæk, Denmark",2021-08-26T12:10:22Z,335285,,Holbæk,4300,11,,Placed on the back of the shed close to the main entrance of the museum,DK,3031
96630,55.70265,12.574732,"Øster Allé 48, 2100 København Ø, Denmark",2016-10-02T13:17:13Z,96630,København,København,2100,11,"E.ON (http://www.eon.dk/e-mobility/) charge fees. 
Paid parking. You can use EuroPark App to pay for both. ","Charging Station Virta

Tripple Charger for fastcharging.
Dual 11kW Type2 for AC destination charging.
Four reserved EV Spots",DK,379
35803,55.488378,9.469766,"Ålegården 1, 6000 Kolding, Denmark",2013-11-20T20:43:33Z,35803,Kolding Municipality,Kolding,6000,11,"clever.dk

Free parking weekdays 18:00-08:00. Saturday after 14:00. Other times 10 kr. per hour.",Charging Station Clever A/S,DK,414
81795,55.692707,12.534552,"Ane Katrines Vej 34, Frederiksberg, 2000, DK",2016-03-02T11:17:00Z,81795,Frederiksberg Municipality,Frederiksberg,2000,11,,"2x charging stands, 4x parking spots (2 reserved for EVs)",DK,151
79599,55.701418,12.58129,"Petersborgvej 1, København Ø, 2100, DK",2016-01-10T18:06:31Z,79599,København,København,2100,11,"E.ON (http://www.eon.dk/e-mobility/)
Parking is NOT free!",2x11 KW,DK,372
292442,55.755785,12.454073,"Krogshøjvej 42, Bagsværd, 2880, DK",2021-01-05T01:06:45Z,292442,,Bagsværd,2880,11,,,DK,610
295964,56.050404,9.962168,"Skanderborg fælled 1, Skanderborg, 8660, DK",2021-01-16T00:01:59Z,295964,,Skanderborg,8660,11,,,DK,0
303521,54.763131,11.868185,"Strandgade 28, 4800 Nykøbing Falster, Denmark",2021-02-09T23:20:42Z,303521,,Nykøbing Falster,4800,11,,Charging Station Clever A/S,DK,208
301139,55.499792,9.473446,"Dyrehavevej 116, Kolding, 6000, Denmark",2021-02-04T17:38:55Z,301139,,Kolding,6000,11,,Charging Station Clever A/S,DK,1017
215081,54.948406,11.987449,"Farø 1, Farø, 4793, DK",2019-11-17T05:05:30Z,215081,,Bogø By,4793,11,,,DK,247
59404,55.706245,12.589806,"Hjørringgade 18B, 2100 København Ø, Denmark",2014-12-30T09:43:34Z,59404,København,København,2100,11,,"Charging Station Liikennevirta Oy (Virta)
- 4x11kW",DK,168
251590,57.124351,8.622426,"Nordre Strandvej 54, 7730 Hanstholm, Danmark",2020-07-19T06:41:46Z,251590,,Hanstholm,7730,11,,,DK,1452
201433,55.631178,12.65661,"Kystvejen 1, Kastrup, 2770, DK",2019-08-06T11:40:34Z,201433,,Kastrup,2770,11,"Can be activated with Plugsurfing or any other roaming service. 2,5 DKK/kWh. with Spiiri+ 5 DKK fee.","1x 175 kW CCS / CHAdeMO
1x  50 kW  CCS / 50 kW CHAdeMO/43 kW AC /
Support: +45 53 60 06 01",DK,637
276715,55.70588,12.55119,"Sigynsgade 64, København N, None, DK",2020-11-04T20:04:04Z,276715,,København,2200,11,,,DK,460
79295,56.031867,12.609905,"Jernbanevej, 3000‎ Helsingør, Danmark",2016-01-03T16:46:00Z,79295,Helsingør Municipality,Helsingør,3000,11,E.ON (http://www.eon.dk/e-mobility/),6 x 11 kW,DK,578
300811,56.500184,9.744516,"Baneskellet 1, 8830 Tjele",2021-02-02T12:33:26Z,300811,,Tjele,8830,11,,P-plads 4 stk 22 kw Clever,DK,355
329211,55.391902,11.352395,"Idagårdsvej 12, 4200 Slagelse, Denmark",2021-07-21T09:05:27Z,329211,,Slagelse,4200,11,,"4x 300 kW CCS
2 X 50 kW CCS / CHAdeMo",DK,467
80445,56.412309,10.076292,"Gl. Århusvej 5, Randers SV, 8940, Denmark",2016-01-28T05:22:06Z,80445,Randers Municipality,Randers,8940,11,,Charging Station Virta,DK,170
337626,56.135198,9.143819,"Vibevej 3, 7430 Ikast, Denmark",2021-09-09T11:12:52Z,337626,,Ikast,7430,11,,Home,DK,1644
290313,56.155889,10.181689,"Silkeborgvej 39, 8000 Aarhus, Denmark",2020-12-18T20:02:51Z,290313,,Aarhus,8000,11,Clever Abb or 3.5 dkk pr KWH,Charging Station Clever A/S - Located at the parking lot behind the shop.,DK,532
252383,55.715515,9.537439,"Vejle Sygehus - Sygehus Lillebælt, Beriderbakken 16, 7100 Vejle, Danmark",2020-07-25T07:43:56Z,252383,,Vejle,7100,11,Clever,"To type 2 ladere. 
Operatør Clever 
To dedikerede pladser. ",DK,908
305282,54.799743,11.635569,"Torvet 10, 4990 Sakskøbing",2021-02-21T02:32:23Z,305282,,Sakskøbing,4990,11,4 timers begrænsning mellem 8-18 alle ugens dage,"2x 11 kW ladestandere på torvet i Sakskøbing. 

4 timers begrænsning mellem 8-18 alle ugens dage. 

Hotel Sakskøbing ligger få stenkast derfra, og gør at hotellets gæster ofte bruger ladestanderne.",DK,9912
277482,55.528332,9.470521,"Bramdrupskovvej 110, Kolding, 6000, DK",2020-11-04T20:21:07Z,277482,,Kolding,6000,11,,Charging Station FLEXCHARGE ApS,DK,509
292417,55.648517,12.469931,"Kettegård Alle 30, Hvidovre, 2650, DK",2021-01-05T01:06:11Z,292417,,Hvidovre,2650,11,,,DK,838
291162,56.190232,10.188068,Olof Palmes Alle 34,2020-12-25T16:00:58Z,291162,,Aarhus,8200,11,,,DK,903
221919,55.668451,12.419578,"Roskildevej 550, 2605 Brøndbyvester, Denmark",2020-01-03T23:22:17Z,221919,,Brøndbyvester,2605,11,clever.dk,"4 x 22 kW / 32A
Clever
Enter area from Roskildevej",DK,1358
77128,55.662653,12.606864,"Frankrigshusene 24, 2300 København, Denmark",2015-12-01T09:00:11Z,77128,København,København,2300,11,E.ON (http://www.eon.dk/e-mobility/),Charging Station Liikennevirta Oy (Virta) - right next to Amager Centeret.,DK,144
99280,55.595442,12.668787,"Dragør Stationsplads 5, Dragør, None, DK",2016-11-12T09:24:19Z,99280,Dragør Municipality,Dragør,2791,11,E.ON (http://www.eon.dk/e-mobility/),,DK,733
60044,55.640247,12.57843,"Center Boulevard 5, København S, 2300, DK",2015-01-16T11:26:54Z,60044,København,København,2300,11,eon.dk,"E.ON and CLEVER 
E.ON TRIPPLECHARIGER IS ONLY FOR TAXIS.
Located in P2 parking area.
Free for hotel guests at Bella Sky and Taxis.",DK,1605
238065,55.256485,9.486845,"Clausensvej 1, Haderslev, 6100, DK",2020-03-04T10:31:18Z,238065,,Haderslev,6100,11,Clever ,Lille hurtig clever boks på bagsiden af hallen,DK,63
91204,54.857048,9.367298,"Lyren 6, 6330 Padborg, Denmark",2016-07-13T15:47:43Z,91204,Aabenraa Municipality,Padborg,6330,11,,"Schuko, CEE 32A
Parking lot for customers to Dansleep only.",DK,3531
131129,55.526159,9.711975,"Gl Færgevej 30, 7000 Fredericia, Denmark",2017-10-05T05:14:40Z,131129,Fredericia Municipality,Fredericia,7000,11,,"Charging Station Virta - 

Trinity hotel chargers

Only two parking lots reserved for EVs",DK,2605
57305,55.732294,12.441761,"Herlev Ringvej 75, 2730 Herlev, Denmark",2014-11-04T18:46:53Z,57305,Herlev Municipality,Herlev,2730,11,clever.dk,"Charging Station Clever A/S - Use the ""M"" park",DK,948
271430,55.708056,12.584119,"Vordingborggade 35, 2100 København Ø, Danmark",2020-10-17T06:35:51Z,271430,,København,2100,11,Clever pricing applies,"Clever vordingboggade Østerbro
Dual 22kW Type 2 charge poles",DK,607
52743,54.907635,9.784497,"Sønderbro 2, 6400 Sønderborg, Denmark",2014-07-28T16:35:05Z,52743,Sønderborg Municipality,Sønderborg,6400,11,Ask port manager,Spørg havnefoden,DK,341
66668,54.899843,11.896954,"4 Cargovej, 4840 Nørre Alslev, Denmark ",2015-06-29T19:12:51Z,66668,Guldborgsund Municipality,Nørre Alslev,4840,11,"2,9kr/KWh",You can preorder from Tonis.dk Cafe between 8 and 19 on +45 2871 5335,DK,1492
173783,55.195578,9.358512,"Tøndervej 16, 6500 Vojens, Danmark",2018-12-06T06:30:35Z,173783,,Vojens,6500,11,70kr for en opladning,Three fase/euro,DK,8939
267404,57.432691,10.520557,"Finnsvej 62, 9900 Frederikshavn, Danmark",2020-09-16T00:05:54Z,267404,,Frederikshavn,9900,11,,Gåååå,DK,1380
118866,57.71923,10.577519,"Hans Baghs Vej 25, Skagen, None, DK",2017-06-01T09:22:18Z,118866,Frederikshavn Municipality,Skagen,9990,11,E-on priser,2 x Type2,DK,1292
37120,57.340694,10.224752,"Brinken 10, Øster Vrå, Denmark",2013-12-03T04:47:48Z,37120,Frederikshavn Municipality,Østervrå,9750,11,,"Two 3-phase 16Amp plugs on the wall in front of the Company.
When using the plug, send SMS to +45-42111532,
Free to use.

No power in the plug. ",DK,14127
295965,55.701282,12.53851,"Mimersgade 124, København NV, 2200, DK",2021-01-16T00:01:59Z,295965,,København,2200,11,,,DK,246
110087,55.782139,12.519494,"Asmussens Allé, 2800‎ Kongens Lyngby, Danmark",2017-02-18T12:16:15Z,110087,Lyngby-Taarbæk Municipality,Kongens Lyngby,2800,11,E.ON,EON 8 stations. Mostly occupied by shared renting cars: Drive Now and Green Mobility,DK,261
124707,56.453635,9.402811,"Tingvej 3, Viborg, 8800, DK",2017-08-08T05:14:11Z,124707,Viborg Municipality,Viborg,8800,11,,Clever.dk network. ,DK,348
195206,55.427189,10.404083,"Havnegade 118, 5000 Odense, Danmark",2019-06-24T17:31:10Z,195206,,Odense,5000,11,,"Two outlets, each 220v and 13 amp",DK,98
323843,56.18712,9.552786,"Bredhøjvej 19, 8600 Silkeborg, Denmark",2021-06-17T17:41:37Z,323843,,Silkeborg,8600,11,Clever chip,,DK,595
66863,56.777474,9.338291,"Højgårdsvej 11, Farsø, 9640, DK",2015-07-03T08:38:31Z,66863,Vesthimmerland Municipality,Farsø,9640,11,E.ON (http://www.eon.dk/e-mobility/),"Standere: 1
Ladere: 2",DK,1094
315180,55.554231,8.124776,"Fyrvej 5, 6857 Blåvand, Denmark",2021-04-20T13:21:52Z,315180,,Blåvand,6857,11,,400 V 32 A CEE plug,DK,187
290483,55.692239,12.533096,"Priorvej 1, 2000 Frederiksberg, Denmark",2020-12-20T10:19:03Z,290483,,Frederiksberg,2000,11,,8 Public charging stations. 22kW. Parking restrictions in place - EV only.,DK,160
81131,55.621811,12.60613,"Bjørnbaksvej 5, Kastrup, 2770, DK",2016-02-13T14:36:05Z,81131,Tårnby Municipality,Kastrup,2770,11,E.ON (http://www.eon.dk/e-mobility/),,DK,91
254274,55.489835,9.473251,"Borchs Gård, 6000 Kolding, Denmark",2020-08-06T10:49:31Z,254274,,Kolding,6000,11,Eon charger requires membership or payment in parking app,"Common parking No EV reserved spaces
Paid parking",DK,414
339078,55.48857,12.161963,"Nordhøj 4, 4600 Køge, Danmark",2021-09-18T10:08:31Z,339078,,Køge,4600,11,,300ke (2x150kw),DK,192
54680,56.751459,8.416915,Jernbanegade 5,2014-09-12T10:09:54Z,54680,Thisted Municipality,Hurup Thy,7760,11,Ask in recption,EVBox BusinessLine,DK,135
52452,55.725532,12.436059,"Herlev Bygade 70, 2730 Herlev, Denmark",2014-07-19T16:40:40Z,52452,Herlev Municipality,Herlev,2730,11,,"Charging Station Virta
- 6 outlets, 400volt-16a. 3 phase. 11 kwh",DK,969
89777,55.115859,10.723547,"Idrætsvej 1, Oure, 5883, DK",2016-06-21T20:59:34Z,89777,Svendborg Municipality,Oure,5883,11,E.ON (http://www.eon.dk/e-mobility/),,DK,6216
158882,55.961973,9.613061,"Søndergade 112, 8740 Brædstrup, Denmark",2018-07-08T13:18:24Z,158882,Horsens Municipality,Brædstrup,8740,11,,"Hotel Pejsegården has two charge posts each with 11kW Red CEE 3x16A and danish 230V standard plug for patrons only (restaurant, lodging or bowling)",DK,1459
35787,54.962101,9.786079,"Lufthavnsvej 1, 6400 Sønderborg, Denmark",2013-11-20T20:43:32Z,35787,Sønderborg Municipality,Sønderborg,6400,11,clever.dk,Charging Station Clever A/S,DK,4602
291012,56.154625,9.504823,"Herningvej 37, 8600 Silkeborg, Danmark",2020-12-24T01:34:57Z,291012,,Silkeborg,8600,11,,"Clever ved Middelfart Sparekasse
2 x 22kW",DK,592
335371,55.671215,12.57383,"Anker Heegaards gade 7, 1572 Copenhagen ",2021-08-26T19:30:50Z,335371,,København,1572,11,"Clever subscription or app payment. 3,5 DKK",,DK,199
236235,57.581389,9.937904,"Kystvejen 10D, 9850 Hirtshals, Danmark",2020-02-19T12:44:08Z,236235,,Hirtshals,9850,11,Clever RFID or roaming,"Clever.dk

4 stk ladere. På 2 standere. Ikke delte. RFID.

Parkeringspladsen til højre. Cirka midt på. Lige ved siden af skuret til at rense fisk i.

Pas på. Vejbump på p-pladsen. Enkelte EV'er er skrabet imod. Kø langsomt hvis du ikke har stor frihøjde.",DK,1990
286376,55.686661,12.537479,"Holger Danskes Vej 19, 2000 Frederiksberg, Denmark",2020-11-23T20:23:30Z,286376,,Frederiksberg,2000,11,Part of the Clever network,Limited (free) 3 hours parking between 9:00 and 20:00.,DK,704
35692,55.769703,12.517723,"Firskovvej 32, 2800 Kongens Lyngby, Denmark",2013-11-20T20:43:20Z,35692,Lyngby-Taarbæk Municipality,Kongens Lyngby,2800,11,clever.dk,Charging Station Clever A/S,DK,27
345660,56.058933,10.200929,Damgårds Allé 5 8330 Beder,2021-10-31T16:55:34Z,345660,,Beder,8330,11,Spirii Go,,DK,3791
32326,55.019509,8.438399,"Hafenstrasse 37, List 25992",2013-11-20T20:11:10Z,32326,,List,25992,11,5 € for charging 22 kW Type2. Free parking.,,DE,91
252027,56.408298,10.885914,"Høgevej 13, 8500 Grenaa, Danmark",2020-07-22T16:38:54Z,252027,,Grenå,8500,11,CLEVER-station. You can start the station with a Clever-key. ,"Privat CLEVER-ladestander ved VID Gymnasier. Alle er velkomne til at benytte standeren uden for skolens åbningstid, som cirka er alle hverdage august til juni 8-15:45. Standeren startes med en CLEVER-brik. ",DK,1126
118868,56.963466,10.219903,"Ny Høstemarkvej 11, Storvorde, 9280, DK",2017-06-01T09:33:58Z,118868,Aalborg Municipality,Storvorde,9280,11,E.On pricing,"E.On 11kW Type2 charger 
Across the Street from “Mou Hallen”",DK,3263
90978,55.399579,10.381812,"Østre Stationsvej 32, 5000 Odense C, Denmark",2016-07-10T10:16:21Z,90978,Odense Municipality,Odense,5000,11,,"Free for hotel guests.
1 Red CEE, 1 Danish Wall plug, 1 Type 2 Cable.",DK,528
248340,56.491337,8.590025,"Anlægsvej 4, 7600 Struer, Danmark",2020-06-23T21:12:06Z,248340,,Struer,7600,11,2.75 kr pr. KWh ,"Apollon Struer
Ladestation ved biografen i Struer.
Plads til 2 biler. 
2 x 22 kW - Plugsurfing App",DK,527
108280,55.811098,12.470435,"Rønnebærvej 3, Holte, 2840, Denmark",2017-01-25T23:26:25Z,108280,Rudersdal Municipality,Holte,2840,11,clever.dk,"Charging Station Clever A/S
- Two dual 11-22kW Type2 chargers",DK,2153
161836,57.295583,10.925163,"Havnebakken, 9940 Læsø, Denmark",2018-08-04T10:09:52Z,161836,Læsø,Læsø,9940,11,,"Rødt hus 100 meter fra havnebassinet

Der holder ofte udlejningsbiler på stedet 

Der er 2 kombi udtag, begge er de røde campingstik og normal eu stik.
",DK,516
303403,55.618156,12.62797,"Amager Landevej 244, 2770 Kastrup, Denmark",2021-02-09T14:50:58Z,303403,,Kastrup,2770,11,Free charging within Lidl openings hours ,For Lidl customers. Taxies not allowed. Please rotate quickly by avoiding excessive charging over 80%,DK,1950
69180,55.101523,14.697471,"Snellemark 41, 3700 Rønne, Denmark",2015-08-14T14:05:15Z,69180,Bornholm,Rønne,3700,11,"Free parking
clever.dk","Clever Snellemark
Need card from CLEVER",DK,486
175659,55.663225,11.129106,"Slagelsevej 242, 4400 Kalundborg, Danmark",2018-12-25T14:39:12Z,175659,,Kalundborg,4400,11,Clever.dk,,DK,3669
286825,57.252474,9.580845,"Høkervej 5E, 9492 Blokhus, Danmark",2020-11-27T20:10:00Z,286825,,Blokhus,9492,11,"75 DKK for four hours of up to 11kW.
(Pretty good price for 44kWh if you can utilize it fully)
Contact reception for usage","Three parking lots reserved electric vehicles.
2x red CEE plugs - wall box on the last spot
In reception you can buy 4-hour package (CEE plugs) or 8-hour package (wall box)",DK,239
310399,56.06709,9.984223,"Niels Bohrs Vej 14, 8660 Skanderborg, Danmark",2021-03-24T19:08:40Z,310399,,Skanderborg,8660,11,Clever,Clever lader 22 kw,DK,421
230659,55.817678,12.574518,"Skodsborg Strandvej 119B, 2942 Skodsborg, Denmark",2020-02-04T08:52:27Z,230659,,Skodsborg,2942,11,,Two additional EV chargers are available for patrons. RFID card available at reception or you can use your own e.on card if you have one. ,DK,331
123905,56.037486,9.954263,"Skovsvinget 6, 8660‎ Skanderborg, Denmark",2017-07-31T19:24:08Z,123905,Skanderborg Municipality,Skanderborg,8660,11,Free for hotel guests. ,3x11kW CEE (+230V outlet). Ask hotel reception for permission. Only for hotel guests. ,DK,2657
247118,55.441724,11.812668,"Kildestrædet 9, 4100 Ringsted, Danmark",2020-06-14T15:23:10Z,247118,,Ringsted,4100,11,,Er i carport. Ring først.,DK,1779
250816,55.740393,12.482607,"Tobaksvejen 11, 2860 Søborg, Danmark",2020-07-13T14:01:17Z,250816,,Søborg,2860,11,Clever.dk for charging . Parking is 15 DKK or Hour,Parkeringshus 30 x 11kW type2 chargers,DK,619
288181,56.103697,10.145412,"Christian X's Vej 253, Aarhus",2020-12-06T16:31:21Z,288181,,Tranbjerg,8310,11,"Free during test period, no plug-in hybrids",300 kW,DK,1842
35768,55.00098,11.911674,"Færgegårdsvej 15, Vordingborg, 4760, DK",2013-11-20T20:43:30Z,35768,Vordingborg Municipality,Vordingborg,4760,11,clever.dk,,DK,1813
64517,55.602718,12.658731,"A.P. Møllers Allé 39, 2791 Dragør, Denmark",2015-05-11T18:20:59Z,64517,Dragør Municipality,Dragør,2791,11,E.ON (http://www.eon.dk/e-mobility/),E.ON 2x11 kw,DK,570
59400,55.660682,12.605547,"Frankrigsgade 1, 2300 København, Denmark",2014-12-30T09:23:14Z,59400,København,København,2300,11,E.ON (http://www.eon.dk/e-mobility/),"Charging Station Virta
- 4x11kw
6 spaces in total",DK,361
344161,55.808404,8.621578,"Jernbanegade 9,6870 Ølgod, Danmark",2021-10-21T12:17:26Z,344161,,Ølgod,6870,11,"3,00 kr
",BR-EL,DK,0
303506,55.714845,12.462116,"Åfløjen 7, 2700 København, Denmark",2021-02-09T21:43:10Z,303506,,København,2700,11,Sperto.dk,,DK,192
80377,56.154626,10.201189,"Emanuel Sejrs Gade, 8000 Aarhus C, Denmark",2016-01-26T21:26:08Z,80377,Aarhus Municipality,Aarhus,8000,11,Parkeringsafgift 17kr / t,"Charging Station Virta
- 3 stations, 6 outlets. 3 x 2 11kW",DK,427
35712,55.325406,11.962308,"Frederiksgade 9, 4690 Haslev, Denmark",2013-11-20T20:43:23Z,35712,Faxe,Haslev,4690,11,clever.dk,,DK,12031
35765,55.40042,11.367227,"Stadionvej 4, 4200 Slagelse, Denmark",2013-11-20T20:43:29Z,35765,Slagelse Municipality,Slagelse,4200,11,clever.dk,Charging Station Clever A/S,DK,0
307925,54.790904,11.852092,"Ny Kirstinebergvej 7-9, Nykøbing F, 4800, Denmark",2021-03-09T18:14:08Z,307925,,Nykøbing Falster,4800,11,,Charging Station Clever A/S,DK,72
134696,57.222699,9.937178,"Vildmosen Vest, Tylstrup, 9382, DK",2017-11-06T16:48:17Z,134696,Brønderslev Municipality,Tylstrup,9382,11,,Vildmose vest - e.on.,DK,4852
37096,55.822052,12.488543,"Skovlytoften 22, 2840 Holte, Denmark",2013-12-02T21:08:02Z,37096,Rudersdal Municipality,Holte,2840,11,,3x32A Type 2 and 3x16A CEE. Open in office hours. Company Jomitek.,DK,155
320039,56.359016,8.620585,Enghavens parkeringsplads,2021-05-24T13:47:55Z,320039,,Holstebro,7500,11,"DKK 3,50 (€ 0,50)",Clever 8 x type 2,DK,562
101483,54.935974,8.319614,"Strandstraße 11, 25996 Wenningstedt-Braderup (Sylt), Germany",2016-12-15T22:42:43Z,101483,,Wenningstedt-Braderup (Sylt),25996,11,,,DE,3404
281946,55.74406,12.415461,"Skinderskovvej 10, 2730 Herlev, Danmark",2020-11-09T09:46:05Z,281946,,Herlev,2730,11,See Plugsurfing or EVBox app,,DK,2296
298508,56.882938,8.416326,Legindvej 149  7752 Snedsted ,2021-01-22T18:17:29Z,298508,,Snedsted,7752,11,,32A stik gårdsplads,DK,2625
35723,55.676725,12.560667,Nyropsgade 42,2013-11-20T20:43:25Z,35723,København,kbh,1604,11,,"On floor -1, in part with sign “Tivoli/Hotel”. Two chargers with a fixed type 1 cable each. Also blue CEE outlets. In other places in the garage there were red three phase CEE outlets labelled “car charger” but they seemed meant for rental Teslas (Avis) rather than the public. ",DK,66
88983,55.685113,12.524392,"Nordre Fasanvej 57, 2000‎ Frederiksberg, Danmark",2016-06-06T20:03:05Z,88983,Frederiksberg Municipality,Frederiksberg,2000,11,clever.dk,Kør ind ad porten ved Nordre Fasanvej 57. Drej til venstre ved første stikvej. Stander placeret ved gavlen ved nr. 7a.,DK,276
287079,56.454483,9.400298,"Overdamsvej 5, 8800 Viborg, Danmark",2020-11-30T15:29:44Z,287079,,Viborg,8800,11,,2 stk type 2 Clever,DK,592
321448,55.693373,12.568838,"Ryesgade 45, København",2021-06-02T04:54:30Z,321448,,København,2100,11,,,DK,155
114807,55.711259,12.540388,"Bispebjerg Bakke 13, 2400 København, Denmark",2017-04-17T09:22:29Z,114807,København,København,2400,11,www.clever.dk,Charging Station Clever A/S,DK,794
279150,56.44838,9.396377,"Banegårds Alle 1, Viborg, 8800, DK",2020-11-04T20:57:53Z,279150,,Viborg,8800,11,"DKK 2,50/kWh","4x Type 2 (22 kW)
Located in car park.
Pay with IONITY app or use Plugsurfing or any other roaming service.",DK,747
63317,55.859128,9.849067,"Rådhustorvet 4, Horsens, 8700, DK",2015-04-16T19:18:11Z,63317,Horsens Municipality,Horsens,8700,11,E.ON (http://www.eon.dk/e-mobility/),"6x11kw
10kr/hour parking, free parking evenings and sunday",DK,249
339304,55.274805,14.800981,"Storegade 26, 3770 Allinge, Danmark",2021-09-19T18:44:19Z,339304,,Allinge,3770,11,DKK 3.75 / kWh,"Type 2, 2 chargers. Ask in reception for access",DK,375
70960,55.216337,9.376619,"Sønderjyske Motorvej 685, Vojens, 6500, DK",2015-09-12T00:44:20Z,70960,Haderslev Municipality,Vojens,6500,11,clever.dk,"Clever 50 kW DC, 43 kW AC",DK,7952
176244,56.033228,9.930944,"Gasværksvej, 8660 Skanderborg",2018-12-31T14:21:34Z,176244,,Skanderborg,8660,11,,BLOMS og DIRKSEN,DK,73
238468,55.601533,11.83786,"Tølløsevej 53, 4330 Hvalsø ",2020-03-07T09:49:58Z,238468,,Hvalsø,4330,11,,,DK,2685
161194,55.722511,12.608775,"Kattegatvej 53, 2100 København, Danmark",2018-07-27T20:01:13Z,161194,København,København,2100,11,,"Two outlets next to Meyers, port 4",DK,2863
65465,56.042751,9.924731,"Krøyer Kielbergs Vej 3, 8660 Skanderborg, Denmark",2015-06-02T14:58:16Z,65465,Skanderborg Municipality,Skanderborg,8660,11,E.ON (http://www.eon.dk/e-mobility/),"3 pladser, type 2 connector, own cable required. ",DK,1541
111225,56.153862,9.638231,"Borgdalsvej 1, 8600 Silkeborg, Denmark",2017-03-04T19:17:03Z,111225,Silkeborg Municipality,Silkeborg,8600,11,,Two 11kW Type2 sockets. Free charging for now. ,DK,5312
320916,56.095329,8.236368,"Vester Kær 28, 6950 Ringkøbing",2021-05-29T19:11:02Z,320916,,Ringkøbing,6950,11,,"Tesla Destination Charger next to the main entrance. 
1x 11 kW

Available free of charge for patrons.",DK,179
322048,55.656844,12.352857,"Stationsporten 8, 2620 Albertslund",2021-06-05T21:53:29Z,322048,,Albertslund,2620,11,0 DKK,2 * 11 KW and 2 * 6.5 KW,DK,2
218151,55.058865,10.604491,"Vestergade 11, 5700 Svendborg, Danmark",2019-12-10T12:55:51Z,218151,,Svendborg,5700,11,,"Free for now. (Hele 2021)

Der skal bruges kreditkort til at starte opladning eller vilkårlig lade-brik.",DK,65
47437,55.511278,9.76498,"Karensmindevej 3, 5500 Middelfart, Denmark",2014-05-31T13:11:51Z,47437,Middelfart Municipality,Middelfart,5500,11,,The charging stations are located near the comwellmiddelfart.dk,DK,24
99281,55.657133,12.587958,"Ørestads Boulevard 11, København S, 2300, DK",2016-11-12T09:27:56Z,99281,København,København,2300,11,E.ON (http://www.eon.dk/e-mobility/),,DK,1282
191180,55.626751,12.575812,"Hannemanns Allé 15, København S, 2300, Denmark",2019-05-19T11:07:59Z,191180,,København,2300,11,,"Clever (DC charger, AC, CCS, ChaDeMo)",DK,6
129429,55.254597,12.373966,"Havneby1, 4673 Stevns",2017-09-21T07:52:34Z,129429,Stevns Municipality,Rødvig Stevns,4673,11,Negotiation ,Various CEE plugs and Danish 230V outlets,DK,852
134116,55.700608,11.651879,"Springstrup Syd, Holbæk, 4300, DK",2017-10-30T15:22:50Z,134116,Holbæk Municipality,Holbæk,4300,11,Charging requires e.on. membership or a cash payment via credit card,E.ON. Fast triple charger,DK,6566
295740,55.086859,8.557814,Vestergade 6 6792 Rømø,2021-01-14T05:59:35Z,295740,,Rømø,6792,11,"Spirii app eller brik, 3 kr/kWh",,DK,587
85748,55.689486,12.553519,Kapelvej 15 2200 København,2016-04-23T08:24:17Z,85748,København,København,2200,11,E.ON,4x 11kW,DK,619
276323,56.843011,9.740484,"Nordjyske Motorvej 318, 9541 Suldrup, Denmark",2020-11-04T19:55:07Z,276323,,Suldrup,9541,11,,Charging Station Virta - 50kW Go past the gas station and keep right for the charger,DK,7605
249160,55.531544,9.470516,"Kokholm 2, 6000 Kolding, Danmark",2020-07-01T10:29:22Z,249160,,Kolding,6000,11,"Clever 
Parkering gratis, ved registrering i Scandic reception",Clever ,DK,0
198554,57.152135,9.364227,"Slettestrandvej 140, Fjerritslev, 9690, DK",2019-07-19T09:51:17Z,198554,,Fjerritslev,9690,11,Charger operated by Clever,"The two chargers are located on the wall next to the parking lot so you can only charge two cars if one has a long cable. 
There’s no signs saying it’s reserved for EVs. 
",DK,380
118872,57.368087,9.712429,"Jyllandsgade 11, Løkken, 9480, DK",2017-06-01T09:47:32Z,118872,Hjørring Municipality,Løkken,9480,11,Clever,Clever,DK,954
80661,55.580548,9.727006,"Vestre Ringvej 101, 7000 Fredericia, Denmark",2016-02-02T07:33:19Z,80661,Fredericia Municipality,Fredericia,7000,11,,"Charging Station Virta
- 6 Type 2 chargers",DK,672
309063,55.683827,12.585597,"Borgergade 18, 1300 København, Denmark",2021-03-16T17:25:20Z,309063,,København,1300,11,,Charging Station Clever A/S,DK,123
44368,55.719442,11.71165,"Gasværksvej 7, 4300 Holbæk, Denmark",2014-03-11T14:50:13Z,44368,Holbæk Municipality,Holbæk,4300,11,clever.dk,Indkørsel af Studiestræde,DK,241
54684,57.116492,8.607547,"Chr. Hansens Vej 2, 7730 Hanstholm, Denmark",2014-09-12T10:14:09Z,54684,Thisted Municipality,Hanstholm,7730,11,,"Tesla Destination Charger & Red CEE
Free for hotel guests",DK,1819
35738,56.175022,9.628989,"Sommervej 50, 8600 Silkeborg, Denmark",2013-11-20T20:43:26Z,35738,Silkeborg Municipality,Silkeborg,8600,11,,"'

** Silkeborg golfklub**  
Sensommervej 15c

4970 Silkeborg

![](http://services.clever.dk/image/A2xxxx.png)

** Status:** Ledig  
** bningstider:** 24 timer i dgnet  
  
  
'

",DK,3143
309577,56.158533,9.506535,"Lysbrogade 40, 8600 Silkeborg, Danmark",2021-03-19T22:05:26Z,309577,,Silkeborg,8600,11,"2,25kr/kWh",Send SMS or call,DK,0
311270,55.322792,10.253907,"Plouggårdsvej 18, 5690 Tommerup, Denmark",2021-03-28T11:06:50Z,311270,,Tommerup,5690,11,,"Spirii Go Charging Station
- Pay through SPIRII app.",DK,4412
101463,55.606843,11.947801,"10 Skottehusvej, Lejre, , Denmark, 4320",2016-12-15T22:31:59Z,101463,Lejre,Lejre,4320,11,,"Restaurant Fasaneriet
Two Tesla 11kW chargers for customers. Please see front desk. ",DK,11670
198273,57.436019,10.537332,"Sydhavnsvej 4, 9900 Frederikshavn, Denmark",2019-07-17T11:22:09Z,198273,,Frederikshavn,9900,11,"Betaling for parkering. 8kr i timen eller 80kr for 24 timer. 
Adgang til ladeboks via EON brik","EON har to standere med dobbelt type to udtag i hver. 
Betalingen for parkering er 8kr i timen eller 80kr for 24 timer. Herefter kommer betaling for strøm, eller åbning af eon stander vha. RFID kort. ",DK,203
281444,57.455595,10.005554,"Frederikshavnsvej 42-48, Hjørring, 9800, DK",2020-11-05T14:35:39Z,281444,,Hjørring,9800,11,"DKK 2,50/kWh","100 kW Hypercharger located just to the right when entering Meny parking lot
2x CCS Outlets - 100 kW from one outlet, 50 kW each if both are in use
Pay with Plugsurfing or any other roaming service.

Support: +45 53 600 601",DK,1405
248653,55.946427,8.495345,"Tinghusvej 4, 6900 Skjern, Danmark",2020-06-26T13:43:46Z,248653,,Skjern,6900,11,"
AC (17.2 kW): DKK 2,50/kWh
DC (75 kW): DKK 3,50/kWh","SPERTO 
1x CCS (75 kW limited to 70 kW) DC fast charger
2x Type 2 (11 kW) AC destination chargers - one charger reserved for carshare service
Pay with Plugsurfing or any other roaming service",DK,306
316757,56.547571,9.865426,"Præstevejen 6, 8990 Fårup",2021-04-30T10:40:29Z,316757,,Fårup,8990,11,,"Spis en frokost og lad din bil op, kun 1000 meter fra E45, afkørsel 38.",DK,11745
192744,55.931841,12.323358,"Dyrehavevej 29, 3400 Hillerød, Denmark",2019-06-02T10:56:15Z,192744,,Hillerød,3400,11,clever.dk,Charging Station Clever A/S - Fast charge,DK,44
240099,54.906517,9.75308,"Dybbøl Banke 16, Sønderborg, 6400, DK",2020-03-24T16:15:58Z,240099,,Sønderborg,6400,11,,,DK,2022
117229,57.352765,9.94184,"Mejerigade 4, Vrå, 9760, DK",2017-05-13T06:48:49Z,117229,Hjørring Municipality,Vrå,9760,11,Clever abbonenter ,Står ved superbrugens indkørsel,DK,10264
58821,55.455373,11.596497,"Tuelsø Syd 1, Tuelsø Syd, 4180, DK",2014-12-15T11:13:43Z,58821,Sorø Municipality,Sorø,4180,11,E.ON (http://www.eon.dk/e-mobility/),,DK,13173
81142,55.650522,12.522875,"Ellebjergvej 52, 2450 København SV, Denmark",2016-02-13T22:27:20Z,81142,København,København,2450,11,clever.dk,,DK,430
310748,56.445672,9.959809,"Randersvej 75, 8920 Randers, Denmark",2021-03-26T15:30:02Z,310748,,Randers,8920,11,,Clever.dk,DK,4828
72967,54.890923,8.378302,"Am Tipkenhoog 18, 25980 Sylt, Germany",2015-10-14T09:53:13Z,72967,,Sylt-Ost,25980,11,2 Chargers. Free for hotel guests. Located in the parking garage. ,,DE,1522
35666,55.347723,11.106956,"Storebæltsvej 85, 4220 Korsør, Denmark",2013-11-20T20:43:17Z,35666,Slagelse Municipality,Korsør,4220,11,clever.dk,"Clever 50 kW DC, 43 kW AC",DK,111
336484,55.782587,12.48225,"Hummeltoftevej 48, 2830 Virum, Denmark",2021-09-02T15:16:11Z,336484,,Virum,2830,11,E.on's standard price,E.on poles,DK,1401
313971,55.691253,12.577494,"Upsalagade 5, 2100 København Ø",2021-04-12T12:56:59Z,313971,,København,2100,11,,Clever,DK,225
341665,55.141868,8.546563,Havnebyvej 30 6792 Rømø,2021-10-04T06:54:23Z,341665,,Rømø,6792,11,,,DK,11
79605,55.666246,12.543874,"Enghave Plads 25, 1670 København, Denmark",2016-01-10T18:34:02Z,79605,København,København,1670,11,E.ON (http://www.eon.dk/e-mobility/),Charging Station Liikennevirta Oy (Virta) - 4x 11kW. Additional 2x11kW reserved for carsharing.,DK,475
116005,56.155377,10.667298,"Færgevejen 60, 8400, Danmark",2017-04-30T12:11:55Z,116005,Syddjurs Municipality,Ebeltoft,8400,11,,"Onboard charging
Free for business-class",DK,5687
292445,55.756212,12.514249,"Hagedornsvej 1, Gentofte, 2820, DK",2021-01-05T01:06:45Z,292445,,Gentofte,2820,11,,,DK,601
303354,55.275795,9.911231,"Nørre allé 26, 5610 Assens",2021-02-09T08:24:26Z,303354,,Assens,5610,11,"3,00kr/kWh",Public Charger - Connected by Spirii - Charging via Spirii Go APP,DK,312
51275,55.670168,12.587149,"Overgaden Oven Vandet 2, 1000 København K, Denmark",2014-06-19T12:25:01Z,51275,København,København,1415,11,E.ON (http://www.eon.dk/e-mobility/),Charging Station Virta,DK,363
340989,55.942287,9.123619,"Ågade 8, 7330 Brande, Danmark",2021-09-29T10:02:06Z,340989,,Brande,7330,11,,,DK,472
80758,55.487205,9.474836,"Riberdyb, 6000 Kolding, Denmark",2016-02-04T19:58:49Z,80758,Kolding Municipality,Kolding,6000,11,E.ON (http://www.eon.dk/e-mobility/),"E.ON
Four dual 11kW Type2 chargers.",DK,741
219112,57.020841,9.964457,"Hadsundvej 200, 9220 Aalborg, Denmark",2019-12-17T12:25:52Z,219112,,Aalborg,9220,11,clever.dk,Clever 22 kW ladere,DK,207
146013,54.914933,9.784503,"Gerlachsgade 2a, 6400 Sønderborg, Danmark",2018-03-30T09:42:02Z,146013,Sønderborg Municipality,Sønderborg,6400,11,E.on,E.ON 385 p-pladser. Heraf 10 med e-on lademulighed.,DK,626
176089,55.535753,9.718459,"Strevelinsvej 3, 7000 Fredericia, Denmark",2018-12-29T16:53:53Z,176089,,Fredericia,7000,11,6.00 DKK per kWh (about € 0.80 per kWh),"Powered by E.ON Drive & Clever 

4 x 175kW CCS
4 x 75kW CHAdeMO

Charging here is included in the CLEVER subscription, but is of course open to everyone.

www.poweredby.dk",DK,323
330534,55.038421,15.105848,Vestre Strandvej 25,2021-07-28T16:01:19Z,330534,,Nexø,3730,11,Clever stander.,Omme på bagsiden ved parkeringspladsen hænger to standere på væggen.,DK,521
215184,55.848443,12.086034,"Nordsjællands Hospital - Frederikssund, Frederikssundsvej, 3600 Frederikssund, Danmark",2019-11-17T20:57:00Z,215184,,Frederikssund,3600,11,,,DK,178
142500,56.186866,10.187255,"Olof Palmes Allé 13 A Regionshuset, 8200 Aarhus, Danmark",2018-02-05T12:20:04Z,142500,Aarhus Municipality,Aarhus,8200,11,,Clever,DK,859
58508,56.144396,10.203453,"Tietgens Pl. 5, 8000 Aarhus C, Denmark",2014-12-06T11:29:03Z,58508,Aarhus Municipality,Aarhus,8000,11,E.ON (http://www.eon.dk/e-mobility/),,DK,949
328173,57.027919,9.944943,Sohngårdsholmsvej 55-57,2021-07-14T21:20:52Z,328173,,Aalborg,9000,11,,P-hus på Sohngårdsholmsvej ved Parkbyen. I nederste etage befinder der sig to opladerpladser. Clever A/S.,DK,1594
137735,55.974331,9.610383,"///dybest.bankmand.præmien - Niels Wongesvej 8, 8740 Brædstrup, Danmark",2017-12-09T16:19:49Z,137735,Horsens Municipality,Brædstrup,8740,11,"E.ON charger.
There are a “Reserved for Tadaa” on both spots. But so far there are only one car. So one charger is always open for public use. ",På parkeringspladsen til venstre for indgangen til biblioteket.,DK,370
76712,56.951679,8.600215,Thisted,2015-11-23T05:53:58Z,76712,Thisted Municipality,Thisted,7700,11,Dkr 2 kWh,,DK,4471
324443,54.891942,10.409074,"Paradiset 100, 5970 Ærøskøbing",2021-06-21T21:17:43Z,324443,,Ærøskøbing,5970,11,"Spirii 3,25 kr/kWh",2 x 11/22 kW AC public charging stations,DK,747
318239,55.869685,12.346891,"Gl Lyngevej 12, 3450 Lillerød, Denmark",2021-05-11T12:54:47Z,318239,,Lillerød,3450,11,,300kw (2x150kw),DK,7544
168161,55.059744,10.606781,"Centrumplads, Svendborg, 5700, DK",2018-10-09T03:36:22Z,168161,,Svendborg,5700,11,eon network,eon station,DK,0
90574,56.158718,10.068051,"Logistikparken 12, 8220 Brabrand, Denmark",2016-07-04T21:47:34Z,90574,Aarhus Municipality,Brabrand,8220,11,Free charging until further notice.,"Two 11kW Type2 outlets - bring your own cable. Connect car first, then plug into charger. Slow 16A charger and absolutely nothing else to do than hand washing your car :) NOT WORKING",DK,4000
79097,55.653239,12.541299,"Scandiagade 8, 2450 København, Denmark",2015-12-29T19:22:03Z,79097,København,København,2450,11,Free parking for one hour only,,DK,651
239652,55.451002,12.191593,"Søndre Badevej 4H, 4600 Køge, Danmark",2020-03-18T17:35:42Z,239652,,Køge,4600,11,,,DK,1635
62873,57.017293,9.986697,"Niels Bohrsvej 30, 9220 Aalborg Ø, Denmark",2015-04-05T10:10:40Z,62873,Aalborg Municipality,Aalborg,9220,11,E.ON (http://www.eon.dk/e-mobility/),"Standere: 1
Ladere: 2",DK,145
124533,56.155949,10.201395,"Møllegade 4, Aarhus, 8000, DK",2017-08-06T00:57:55Z,124533,Aarhus Municipality,Aarhus,8000,11,clever.dk,,DK,497
301436,55.954319,8.514359,Erhvervsparken 3  6900 Skjern,2021-02-07T00:52:17Z,301436,,Skjern,6900,11,,Clever Type-2 AC 43 kW,DK,1835
344157,55.808404,8.621578,"Jernbanegade 9,6870 Ølgod, Danmark",2021-10-21T11:52:42Z,344157,,Ølgod,6870,11,"3,00 kr
",BR-EL,DK,196
35763,55.637989,12.090109,"Ny Østergade 12, 4000 Roskilde, Denmark",2013-11-20T20:43:29Z,35763,Roskilde Municipality,Roskilde,4000,11,clever.dk,Charging Station Clever A/S,DK,517
62735,56.161263,10.188544,"Eugen Warmings Vej 11, 8000 Aarhus, Denmark",2015-04-02T05:16:43Z,62735,Aarhus Municipality,Aarhus,8000,11,,"Charging Station Virta
- Standere: 3
Ladere: 6",DK,2096
242642,56.32127,10.313682,"Skovvej 1A, 8543 Hornslet, Danmark",2020-04-18T13:18:04Z,242642,,Hornslet,8543,11,Clever.dk,Clever.dk,DK,1044
110214,55.816784,12.377069,"Paltholmterrasserne 7E, Farum, 3520, Denmark",2017-02-20T07:35:50Z,110214,Furesø Municipality,Farum,3520,11,,"Charging Station Virta
- Bring your own cable. 11kW.",DK,1109
293523,55.396784,10.389588,"Albani torv, Odense C, 5000, Denmark",2021-01-05T01:24:43Z,293523,,Odense,5000,11,,Charging Station FLEXCHARGE ApS,DK,672
60014,55.716014,12.541618,"Ringvej, København NV, 2400, DK",2015-01-15T12:48:47Z,60014,København,København,2400,11,www.clever.dk,"2 x 22kW
Lader findes på P-plads på højre hånd ved ""indhak"" i den grå bygning",DK,4506
242890,55.270004,14.76104,Slotslyngen - P-plads,2020-04-22T20:50:39Z,242890,,Allinge,3770,11,"3,25 DKK","Start charging via Spirii app or Newmotion. Charge via Spirii Go App, for cheapest price.",DK,207
35663,55.649392,12.198119,"Hovedgaden 435, Hedehusene, 2640, DK",2013-11-20T20:43:16Z,35663,Høje-Taastrup Municipality,Hedehusene,2640,11,clever.dk,The charger is in front of Fakta Supermarket on the Main Street. Both charging spaces may be occupied by ICE cars due to insufficient parking signs.,DK,1201
143816,56.429963,10.063202,"Merkurvej 55, 8960 Randers, Danmark",2018-02-24T14:49:22Z,143816,Randers Municipality,Randers,8960,11,Clever.dk,"Ved Rød Indgang 
Clevers netværk",DK,929
172471,54.772682,9.397358,"Langberger Weg 7, 24941 Flensburg, Germany",2018-11-22T13:09:49Z,172471,,FL,24941,11,You would need go to the Information Center to obtain an RFID card (5€)  for free charging. ,EV charger inside Garage parking (ground floor) in front of the entrance.,DE,6462
80761,55.49844,9.556119,"Fjordvej 154, 6000 Kolding, Denmark",2016-02-04T20:08:18Z,80761,Kolding Municipality,Kolding,6000,11,E.ON (http://www.eon.dk/e-mobility/),Charging Station Virta,DK,219
319829,55.680432,12.549492,Forchhammersvej 27,2021-05-22T16:42:39Z,319829,,Frederiksberg,1920,11,Clever,8 Clever Type 2 AC 22 kw,DK,494
310047,54.827706,9.363462,"Bovvej 27, 6330 Padborg, Denmark",2021-03-23T07:36:07Z,310047,,Padborg,6330,11,,Ved butiks indgang,DK,75697
101486,54.741022,9.878895,"10 Lehbek, Gelting, , Germany, 24395",2016-12-15T22:45:26Z,101486,,Gelting,24395,11,Available for customers. Self park.,"1 Type2 Connector, up to 22kW.
www.janbecks.de",DE,135
225076,55.672372,12.577406,"Vester Voldgade 129, København V, 1552, DK",2020-01-20T12:47:16Z,225076,,København,1552,11,"Free parking while charging up to three hours
Charging requires clever.dk ","Three Dual 22kW Type2 Wall chargers with reserved EV charging spots for up to six cars. 
Map pin location is exact entry point to the underground garage. ",DK,11
200189,55.032514,9.418094,"Stegholt 35, Aabenraa, 6200, Denmark",2019-07-28T17:37:12Z,200189,,Aabenraa,6200,11,,"Charging Station Clever A/S
11-22 kw",DK,2154
35716,54.665598,11.333074,"Lalandia Centret 2, 4970 Rødby, Denmark",2013-11-20T20:43:24Z,35716,Lolland Municipality,Rødby,4970,11,clever.dk,Charging Station Clever A/S,DK,571
138280,55.841021,12.42576,"Rughaven 2, Birkerød, 3460, DK",2017-12-17T14:58:57Z,138280,Rudersdal Municipality,Birkerød,3460,11,Clever.dk,Two dual 11-22kW Type2 chargers. ,DK,637
35742,55.666565,12.567646,"Carsten Niebuhrs Gade 11, København V, 1577, Denmark",2013-11-20T20:43:27Z,35742,København,København,1560,11,"Clever subscription needed. 
https://www.tivolihotel.com/business-tivoli-hotel/the-hotel/location/parking/",Two Clever Type 2 located on second floor,DK,794
58823,56.025588,12.586748,"Kongevejen 115, Helsingør, 3000, DK",2014-12-15T11:17:13Z,58823,Helsingør Municipality,Helsingør,3000,11,https://clever.dk/uk/,"50kW CCS, 22kW Type 2",DK,132
188268,56.184716,9.54566,"Nørrevænget 43, 8600 Silkeborg, Danmark",2019-04-23T17:00:55Z,188268,,Silkeborg,8600,11,,"Ved siden af inkøbsvogne, i bøgehækken",DK,241
67407,55.719762,11.708158,"Havnepladsen 2, 4300 Holbæk, Denmark",2015-07-15T12:56:32Z,67407,Holbæk Municipality,Holbæk,4300,11,E.ON (http://www.eon.dk/e-mobility/),Charging Station Virta,DK,979
133106,55.475634,9.119463,"Petersmindevej 1, 6600 Vejen, Denmark",2017-10-20T23:34:02Z,133106,Vejen Municipality,Vejen,6600,11,50 DKK to charge,One general charger and one Tesla Destination Charger. Both 11kW. ,DK,478
214473,54.913056,9.791427,"Rønhaveplads 1, Søndeborg, 6400, DK",2019-11-11T20:57:15Z,214473,,Sønderborg,6400,11,,"Type 2, 11kW x 2",DK,1245
192401,55.397355,10.347518,"Højstrupvangen 1, 5200 Odense, Denmark",2019-05-30T12:41:56Z,192401,,Odense,5200,11,Clever pricing applies,,DK,615
309578,56.158533,9.506535,"Lysbrogade 40, 8600 Silkeborg, Danmark",2021-03-19T22:06:41Z,309578,,Silkeborg,8600,11,"2,25kr/kWh",Send SMS or call,DK,1038
35638,55.255624,9.48195,"Bredgade 12, 6100 Haderslev, Denmark",2013-11-20T20:43:14Z,35638,Haderslev Municipality,Haderslev,6100,11,clever.dk,"Clever 50 kW DC, 43 kW AC",DK,5283
63172,55.581401,12.29264,"Jørgen Bachs Plads 1, Greve, 2670, Denmark",2015-04-13T15:46:04Z,63172,Greve Municipality,Greve,2670,11,E.ON (http://www.eon.dk/e-mobility/),"Charging Station Virta
- 6 x 11kW",DK,1232
161652,57.269355,9.64912,"Solvejen 21, 9493 Saltum, Danmark",2018-08-02T11:24:07Z,161652,Jammerbugt Municipality,Saltum,9493,11,,1x CEE 16A 1x Danish wall plug,DK,143
118869,56.450028,9.41781,"Hans Tausens Alle 2, 8800 Viborg, Denmark",2017-06-01T09:36:55Z,118869,Viborg Municipality,Viborg,8800,11,eon.dk,Charging Station Virta,DK,22
220247,55.450788,11.789002,"Nørretorv 45, 4100 Ringsted, Denmark",2019-12-25T10:37:11Z,220247,,Ringsted,4100,11,E.ON,"E.ON
Tidsbegrænset parkering - 30 minutter.",DK,155
171227,56.493203,8.591468,"Ved Fjorden, 7600 Struer, Danmark",2018-11-10T11:28:52Z,171227,,Struer,7600,11,"DKK 3,50 (€ 0,50)",Clever,DK,1866
35664,55.676416,12.561992,"Vester Farimagsgade 17, 1606 København V, Denmark",2013-11-20T20:43:16Z,35664,København,København,1606,11,clever.dk,"50kW CCS, 50kW CHAdeMO, 22kW Type2
Free parking for 30 minutes",DK,6067
341976,55.392166,10.435418,"Cikorievej (Odense Kommune), 5220 Odense, Danmark",2021-10-06T01:05:30Z,341976,,Odense,5220,11,,Gratis ladning mens du handler,DK,797
119816,56.121756,8.114711,"Lodbergsvej 8, Ringkøbing, 6950, DK",2017-06-09T23:24:36Z,119816,Ringkøbing-Skjern Municipality,Ringkøbing,6950,11,DKK 3.5kr/kWh min 17.5kr,"Type 2 next to bowling centers playground and Steakhouse
Notice: Parking is not limited to EVs!",DK,238
333826,55.884589,9.848627,"Flækken 13, 8700 Horsens, Danmark",2021-08-17T22:11:58Z,333826,,Horsens,8700,11,2.50 kr/kWh,4 x 22 kW Spirii,DK,363
321020,55.691278,12.558327,"Birkegade 28, 2200 København N",2021-05-30T12:40:06Z,321020,,København,2200,11,,,DK,1918
45820,57.085911,9.876679,"Lufthavnsvej 100, 9400 Nørresundby, Denmark",2014-04-17T17:21:11Z,45820,Aalborg Municipality,Nørresundby,9400,11,"E.ON (http://www.eon.dk/e-mobility/)
P2 parking is free","Charging Station Virta -  Charging posts 11kW across from OK gas station. Free standard DK and CEE single phase plugs 10A.
Limit to 10A or the fuses will cut off!",DK,573
58660,54.83017,11.141897,"Krøyers Gård 7, 4900 Nakskov, Denmark",2014-12-09T19:41:14Z,58660,Lolland Municipality,Nakskov,4900,11,E.ON (http://www.eon.dk/e-mobility/),"6 stk, placeret midt på P-pladsen, lige ved siden af ""Pølsehuset""",DK,123
95658,57.249719,9.598478,"Aalborgvej 62, 9492 Blokhus, Denmark",2016-09-15T16:45:58Z,95658,Jammerbugt Municipality,Blokhus,9492,11,"3,50 kr/kWh",,DK,274
68011,54.826913,9.330729,"Sønderjyske Motorvej 765, 6330 Padborg, Denmark",2015-07-26T08:56:41Z,68011,Aabenraa Municipality,Padborg,6330,11,E.ON (http://www.eon.dk/e-mobility/),,DK,2683
292431,55.704426,12.588314,"Gammel Kalkbrænderi Vej 41, København, 2100, DK",2021-01-05T01:06:30Z,292431,,København,2100,11,,,DK,494
242891,55.027147,15.118955,"Hovedgade 1c, Snogebæk, 3730 Nexø, Denmark",2020-04-22T20:54:00Z,242891,,Nexø,3730,11,,"Start charging via Spirii app or Newmotion. Charge via Spirii Go App, for cheapest price.",DK,4654
337058,54.825302,9.359791,"Torvegade 25, 6330 Padborg, Danmark",2021-09-06T07:34:02Z,337058,,Padborg,6330,11,MobilePay,,DK,790
58818,55.395397,10.188478,"Kildebjerg Nord 1, Vissenbjerg, 5492, Denmark",2014-12-15T11:08:37Z,58818,Assens Municipality,Vissenbjerg,5492,11,"3,5-4,9 DKK",50kW CHAdeMO 50kW CCS 43kW Type 2,DK,911
63170,55.65102,12.264872,"Bygaden 2, Taastrup, 2630, DK",2015-04-13T15:41:42Z,63170,Høje-Taastrup Municipality,Taastrup,2630,11,E.ON (http://www.eon.dk/e-mobility/),4 x 11kW,DK,6826
307315,55.405972,10.3407,"Rismarksvej 109, 5210 Odense, Danmark",2021-03-06T11:35:14Z,307315,,Odense,5210,11,,E.on 11 kwh,DK,2351
167457,56.133098,8.593166,"Knivsbækvej 13, 6920 Videbæk",2018-10-01T16:24:41Z,167457,,Videbæk,6920,11,"DKK 2,00 pr Kw",2* 16A 400v CEE stik samt 2* 16A 230V Schuko stik. Henvendelse i receptionen for at få tændt for strømmen.,DK,3051
328851,55.353932,10.41993,"Drejebænken 3, 5260 Odense, Denmark",2021-07-19T03:42:19Z,328851,,Odense,5260,11,"Direkte betaling (NFC/ SMOOV): 2,5 DKK/opladning + 3,25 DKK/kWh (inkl. moms)
Ladebrik: Pris og vilkår i henhold til din kontrakt

Direct Payment (NFC/ SMOOV): 2,5 DKK/session + 3,25 DKK/kWh (incl. VAT)
Charge card: Tariff and conditions depend on your contract with your service provider","Allego Charger
6 x 300kW CCS
2 x 50kW CCS
2 x 50kW CHAdeMO",DK,8482
321792,56.108503,8.978118,"Lind Hovedgade 2A, 7400 Herning, Denmark",2021-06-04T10:40:21Z,321792,,Herning,7400,11,,300KW (2x150kw) CCS - One CHAdeMO plug,DK,258
134789,55.676209,13.067487,"Kajgatan 1, Lomma, 234 40, SE",2017-11-07T21:20:47Z,134789,,Lomma,234 40,11,E.On pricing,"Triple charger 
",SE,6149
333130,55.64549,12.460374,"Kettevej 2, 2650 Hvidovre",2021-08-13T10:28:57Z,333130,,Hvidovre,2650,11,,,DK,1886
254545,55.754222,9.718316,"Rindbækvej 6, 8722 Hedensted, Danmark",2020-08-07T22:06:03Z,254545,,Hedensted,8722,11,"2,5 DKK",,DK,185
318830,54.841598,11.151806,"Svingelen 4, 4900 Nakskov, Denmark",2021-05-15T10:55:22Z,318830,,Nakskov,4900,11,,,DK,202
306007,54.938943,8.856188,"Plantagevej 33, 6270 Tønder, Denmark",2021-02-26T18:00:53Z,306007,,Tønder,6270,11,,Charging Station Clever A/S,DK,744
241071,55.555016,8.126465,"Horns Bjerge 4, 6857 Blåvand, Denmark",2020-04-08T06:52:11Z,241071,,Blåvand,6857,11,Clever,"(Kortplacering er præcis)
Køb opladning i receptionen, 80kr for op til 40 KWh 
Clever SMS service opladning virker ikke
Ellers Clever brik virker 24/7",DK,535
125210,55.501135,9.737564,"Viaduktvej 28B, 5500‎ Middelfart, Danmark",2017-08-13T09:37:23Z,125210,Middelfart Municipality,Middelfart,5500,11,,Only for Hotel Milling guests,DK,1472
268642,55.669188,12.548504,"Frederiksstadsgade 1, 1667 København, Danmark",2020-09-25T13:19:42Z,268642,,København,1667,11,,Charging Station Clever A/S - 4 ladestander,DK,60
141502,56.69339,9.496086,"Knabergaarden 1, 9620 Ålestrup, 9620, DK",2018-01-24T16:19:11Z,141502,,Aalestrup,9620,11,,1 E•On stander. Placering er præcis.,DK,180
223789,55.696445,12.587961,"Kastelsvej 60, København Ø, 2100, Denmark",2020-01-13T16:14:07Z,223789,,København,2100,11,,"Charging Station Virta
- 6 plugs 11 KW",DK,587
59414,55.680739,12.580361,"Pilestræde 34, København K, 1112, DK",2014-12-30T10:10:10Z,59414,København,København,1112,11,E.ON (http://www.eon.dk/e-mobility/),2x11kw,DK,6740
155346,55.929148,12.262422,"Krakasvej 2, 3400 Hillerød, Denmark",2018-05-31T07:57:13Z,155346,Hillerød Municipality,Hillerød,3400,11,Clever subscription required.,Clever ,DK,2022
70965,56.449453,9.999328,"Nordjyske motorvej 402 A, Randers NV, 8920, DK",2015-09-12T00:57:13Z,70965,Randers Municipality,Randers,8940,11,clever.dk,"Clever 50 kW DC, 43 kW AC",DK,2713
177645,56.716327,8.446846,"Korshøjvej 5, 7480 vildbjerg",2019-01-14T12:33:06Z,177645,,Hurup Thy,7760,11,"Jeg har betalt kr 3,00 pr kWh
",,DK,0
178935,54.771015,9.466496,"Hochfelder Landstraße 1, 24943, Flensburg",2019-01-26T17:56:54Z,178935,,FL,24943,11,"0,35",zwei Ladeplätze stehen auf den Parkplatz  über new motion (kostenpflichtig) zur Verfügung.,DE,453
305175,56.195332,9.582202,"Højmarken 134, 8600 Silkeborg, Denmark",2021-02-20T12:25:56Z,305175,,Silkeborg,8600,11,"3,5 kr. pr. kWt",Spirii 2x22 kW,DK,1221
95563,55.380428,10.429175,"Ørbækvej 91, 5220 Odense, Denmark",2016-09-14T11:57:01Z,95563,Odense Municipality,Odense,,11,Free charging ,"Located in parking area green B
Well signposted.
Two free 11kW Type2 chargers.
Bring your own cable. ",DK,1357
300788,56.135064,10.157446,"Aahave Parkvej 29, 8260 Viby J",2021-02-02T06:17:27Z,300788,,Viby J,8260,11,,,DK,12175
211893,55.726017,12.416049,"Herlev Hovedgade 234, Herlev, 2730, DK",2019-10-23T08:39:34Z,211893,,Herlev,2730,11,EON pricing,E-On,DK,672
132914,55.510477,11.380444,"Kragerupgårdsvej 33, 4291 Ruds-Vedby, Denmark",2017-10-20T08:03:36Z,132914,Kalundborg Municipality,Ruds-Vedby,4291,11,,2x red CEE 11kW,DK,414
253908,55.666786,12.551467,"Saxogade 108, 1662 København, Denmark",2020-08-03T20:18:25Z,253908,,København,1662,11,,Charging Station Clever A/S,DK,690
198398,56.132678,9.008344,"Åvænget 6, 7400 Herning, Danmark",2019-07-18T11:21:25Z,198398,,Herning,7400,11,Clever.dk,Charging Station Clever A/S - Elgigantens Parking Lot. Drive from Silkeborgvej to Åvænget between KFC and McDonald's up to Elgigantens. Bring your own Type 2 cable,DK,441
317712,55.715914,11.717891,"Markedspladsen 9, 4300 Holbæk, Denmark",2021-05-06T18:41:37Z,317712,,Holbæk,4300,11,,CLEVER ladestation,DK,11012
81146,57.660224,10.464994,"Tranevej 108, Hulsig 9990 Skagen, Denmark",2016-02-13T23:53:24Z,81146,Frederikshavn Municipality,Skagen,9990,11,2.40 DKK - MobilePay,Available to all - MobilePay,DK,529
298449,55.36081,10.588867,"Langeskov Centret 13, 5550 Langeskov, Denmark",2021-01-22T09:23:01Z,298449,,Langeskov,5550,11,3 DKK pr. kWh,pay with the spirii go app from app store,DK,468
265961,55.626516,12.572459,"Hannemanns Allé, 2300 København S, Danmark",2020-09-06T07:00:55Z,265961,,Kastrup,2770,11,"Paid parking via PARKinCPH +
2.50kr pr. kWh for regular PARKinCPH users
3.50kr pr. kWh for others",Spirii go ladestandere at royal arena parking. 6 EV spots.,DK,2419
262732,56.375499,9.65669,"Niels Due Jensens Plads 1, Bjerringbro, 8850, DK",2020-08-13T12:31:46Z,262732,,Bjerringbro,8850,11,"DKK 2,50 / kWh","2x Type 2 (22 kW)
Located in Bjerringbro city centre.
Pay with Plugsurfing or any other roaming service.",DK,711
340374,56.538875,8.307535,"Saturnvej 5, 7620 Lemvig, Danmark",2021-09-26T00:27:26Z,340374,,Lemvig,7620,11,2.50 kr/kWh hos Sperto ,4 stk 11 kW Sperto,DK,642
339958,55.635355,12.653498,"Amager Strandvej 399, 405, 2770 Kastrup, Denmark",2021-09-23T05:28:49Z,339958,,Kastrup,2770,11,,In Scandic Hotel parking area. Paid parking.,DK,1675
118867,57.447094,10.533485,"Barfredsvej 83, 9900 Frederikshavn, Denmark",2017-06-01T09:25:17Z,118867,Frederikshavn Municipality,Frederikshavn,9900,11,,Charging Station Virta -  Bemærk at den kan være svær at finde blot vha. sygehusets adresse. Et fif kan være at skrive “Vestergade 36” på sin gps. Så kører man lige til opladeren.,DK,320
70521,55.706461,12.518071,"Frederikssundsvej 109, 2400 København NV, Denmark",2015-09-05T11:20:22Z,70521,København,København,2400,11,E.ON (http://www.eon.dk/e-mobility/),Charging Station Virta,DK,529
82899,56.550112,8.304483,"Havnen 60, 7620 Lemvig, Denmark",2016-03-27T10:17:43Z,82899,Lemvig Municipality,Lemvig,7620,11,clever.dk,Charging Station Clever A/S,DK,208
35757,54.778301,11.861683,"Strandboulevarden 62, 4800 Nykøbing Falster, Denmark",2013-11-20T20:43:29Z,35757,Guldborgsund Municipality,Nykøbing Falster,4800,11,,,DK,1775
35748,55.614239,12.355649,"Ishøj Østergade 43, 2635 Ishøj, Denmark",2013-11-20T20:43:27Z,35748,Ishøj Municipality,Ishøj,2635,11,Free charging,"Type1 fixed cable. 15A x 230V for free.
Placed left in small underground parking under high building (NOT Bilka underground parking) closest to station. 
",DK,1421
312506,55.460218,10.656194,Tårupstrandvej 15 ,2021-04-02T08:46:31Z,312506,,Kerteminde,5300,11,"3 kr / kwh, Spirii Go app or RFID","1x 22kW eller 2x11 kW
1x 60 kW eller 2x30kW",DK,952
194472,55.267298,9.891276,"Søndre Ringvej 10, 5610 Assens, Denmark",2019-06-17T18:39:27Z,194472,,Assens,5610,11,"Clever Abonnement or 3,5 Dkk pr. KWH",Kræver abb. Hos Clever,DK,1977
248701,57.372654,9.714259,"Nørregade 28, Løkken, Denmark, 9480",2020-06-26T22:26:00Z,248701,,Løkken,9480,11,,,DK,186
272472,55.709415,12.45207,"Brunevang 35, 2610 Rødovre, Danmark",2020-10-26T11:31:58Z,272472,,Rødovre,2610,11,sperto.dk,,DK,669
309394,55.884976,12.545076,"Rungsted Havn, Rungsted, 2960, Denmark",2021-03-18T17:12:25Z,309394,,Rungsted Kyst,2960,11,,Charging Station Liikennevirta Oy (Virta),DK,1041
276662,57.01592,9.980746,"Damstrædet 98, Aalborg Ø, None, DK",2020-11-04T20:02:57Z,276662,,Aalborg,9220,11,,,DK,100
321790,55.722673,9.570668,"Horsensvej 121, 7100 Vejle, Denmark",2021-06-04T10:35:26Z,321790,,Vejle,7100,11,,300KW (2x150kw) CCS - One CHAdeMO plug,DK,850
245759,54.766992,11.872692,"Søndergade 14, 4800 Nykøbing F, Danmark",2020-05-30T10:42:27Z,245759,,Nykøbing Falster,4800,11,,2 x Type 2 plugs. One has a sign saying it is reserved for the dentist. The other looks like it may be available for anyone. Part of the clever network.,DK,2791
119754,54.791241,8.832365,"Gotteskoogstraße 2-4, 25899 Niebüll, Germany",2017-06-09T18:58:37Z,119754,,Niebüll,25899,11,,,DE,4219
108277,55.814091,12.527574,"Nærum Station, 2850 Nærum, Denmark",2017-01-25T23:21:05Z,108277,Rudersdal Municipality,Nærum,2850,11,clever.dk,"Clever 
4 type 2 chargers 22 kw",DK,421
32285,54.914003,8.312035,"Bahnweg 4, Sylt/Westerland 25980",2013-11-20T20:11:07Z,32285,,Sylt,25980,11,,,DE,0
292425,56.069594,9.986723,"Niels Bohrs Vej 25-27, Skanderborg, 8660, DK",2021-01-05T01:06:11Z,292425,,Skanderborg,8660,11,,,DK,307
246522,55.057211,10.578699,"Ryttervej 70, 5700 Svendborg, Denmark",2020-06-09T07:07:59Z,246522,,Svendborg,5700,11,Temporarily free of charge!,"2 x CCS (75 kW/150 kW if only one CCS is in use)
Type 2 (22 kW)",DK,389
332530,56.186195,9.552756,Resedavej 57,2021-08-09T22:14:14Z,332530,,Silkeborg,8600,11,3.00 pr kW,8 stk. 22 kW Spirii,DK,37
35660,56.17035,10.189372,"Finlandsgade 17, 8200 Aarhus N, Denmark",2013-11-20T20:43:16Z,35660,Aarhus Municipality,Aarhus,8200,11,clever.dk,Charging Station Clever A/S - Under halvtag ved Føtex Bager,DK,492
231104,57.460041,9.990554,"Mellemgade 12, 9800 Hjørring, Danmark",2020-02-07T13:11:27Z,231104,,Hjørring,9800,11,Clever ,Clever ladestander 4 stk,DK,1065
292415,55.664814,12.608811,"Lybækgade 9, København, 2300, DK",2021-01-05T01:06:11Z,292415,,København,2300,11,,,DK,2159
133473,55.658725,12.396224,"Kirkebjerg Parkvej 9, 2605 Brøndby, Danmark",2017-10-22T22:02:35Z,133473,Brondby,Brøndbyvester,2605,11,"Private pladser tilhører Conscia A/S
Opladning gennem eon.. ",EON ,DK,471
168470,56.166736,10.151074,"Rytoften 3, 8210 Aarhus, Danmark",2018-10-12T20:21:05Z,168470,,Aarhus,8210,11,100 DKK for a charge,Only for hotel guests. Two red 16A 3-phase CEE sockets. Ask the reception.,DK,150
244622,54.776684,11.881587,"Skovalleen 24, 4800 Nykøbing F, Danmark",2020-05-17T14:33:03Z,244622,,Nykøbing Falster,4800,11,,,DK,777
321738,55.708136,12.564015,"Samsøgade 21, 2100 København, Denmark",2021-06-03T21:31:30Z,321738,,København,2100,11,,6 stk Type 2,DK,782
161197,56.764265,8.814121,"Legindvej 30, 7900 Nykøbing Mors, Denmark",2018-07-27T20:11:27Z,161197,Morsø Municipality,Nykøbing Mors,7900,11,50 DKK paid at reception,"6x Blue CEE 16A
1x Red CEE 32A",DK,1027
60026,55.403691,11.350647,"H. P. Hansens Plads 4, 4200 Slagelse, Danmark",2015-01-15T18:48:06Z,60026,Slagelse Municipality,Slagelse,4200,11,E.ON (http://www.eon.dk/e-mobility/),"Charging Station Virta
- 6x11kw",DK,839
248836,55.811185,12.374152,"Jernbanevej 1, 3520 Farum, Denmark",2020-06-28T05:00:09Z,248836,,Farum,3520,11,,Charging Station Virta,DK,11638
158655,56.039796,12.695055,"Bredgatan 2, Helsingborg ",2018-07-05T17:27:17Z,158655,,Helsingborg,252 25,11,"Mer Connect Sverige
DC: 5 SEK/kWh
AC: 3 SEK/kWh",En av Sveriges största icke-Tesla laddpunkter. Fem snabbladdare på raken.,SE,181
327103,57.616154,10.280214,"Niels Skiverens Vej 5, 9982 Ålbæk, Denmark",2021-07-08T20:08:48Z,327103,,Ålbæk,9982,11,"3,- DKK / kWh ",,DK,483
111258,57.04807,10.048087,"Langerak 16, Aalborg Ø, 9220, DK",2017-03-05T13:21:40Z,111258,Aalborg Municipality,Aalborg,9220,11,e.on.dk,"E.ON chargers in the corner of the parking lot
And on the other side of the road",DK,1911
90739,55.975083,10.14697,"Torvald Køhlsvej 25, 8300 Odder, Denmark",2016-07-06T23:42:03Z,90739,Odder Municipality,Odder,8300,11,,,DK,782
96550,55.781957,12.446394,"Frederiksdalsvej 360, 2800 Kgs. Lyngby, Denmark",2016-10-01T10:50:47Z,96550,Lyngby-Taarbæk Municipality,Kongens Lyngby,2800,11,,Free for hotel guests: http://www.sinatur.dk/moeder-konferencer/lad-op-paa-sinatur/,DK,19
108278,55.82355,12.572285,"Skodsborgparken 21, 2942 Skodsborg, Denmark",2017-01-25T23:22:55Z,108278,Rudersdal Municipality,Skodsborg,2942,11,clever.dk,Charging Station Clever A/S,DK,325
35722,55.682446,12.568359,"Israels Plads 1, 1361 København K, Denmark",2013-11-20T20:43:24Z,35722,København,København,1361,11,2.50dkr per kWh via Spirii Go app,14 pcs. 22kW type2,DK,332
59313,55.674581,12.53756,"Amicisvej 1, 1852 Frederiksberg C, Denmark",2014-12-27T23:34:45Z,59313,Frederiksberg Municipality,Frederiksberg,1820,11,clever.dk,"Charging Station Clever A/S
2x 22kW Type2",DK,355
319946,56.491764,8.598632,"Østergade 37, 7600 Struer, Danmark",2021-05-23T16:22:58Z,319946,,Struer,7600,11,"DKK 3,50 (€ 0,50)",6 stk. Clever ladere,DK,0
344631,56.499318,9.749058,"Gartnerbakken 4, 8830 Tjele, Danmark",2021-10-24T17:10:19Z,344631,,Tjele,8830,11,Via OK app.,OK 11/22kw. Lader med fast type 2 kabel.,DK,862
329897,54.933885,8.87589,Sønderlandevej 8,2021-07-25T22:06:38Z,329897,,Tønder,6270,11,"3,5 kr","Kan bruges med Monta App. 
Ladestanderen hænger for enden af bygningen. Pladsen er markeret med El bil parkering.",DK,749
117154,54.787339,9.431539,"Nordergraben, Flensburg, 24937, Germany",2017-05-12T12:21:50Z,117154,,FL,24937,11,"Je nach Ladeanbieter unterschiedlich u. evtl. auch Zeittarif. Mind. 0,39€/kWh, aber auch mehr als 16€ pro Ladung.","2 x type2 22kwh with 22kw plugs. Bring your own cable. Maximum 4 hours. Can be charged for free, if you have a PlugSurfing account. (Also seems to work with GP Joule, but I don't have an account there, so I haven't verified that).

Parking allowed only for 2 hours during daytime. Operated by GP Joule 

Je nach Ladeanbieter unterschiedlich u. evtl. auch Zeittarif. Mind. 0,39€/kWh, aber auch mehr als 16€ pro Ladung.",DE,1047
79593,55.682427,12.581801,"Gothersgade 52, 1123 København K, Denmark",2016-01-10T17:13:43Z,79593,København,København,1123,11,,Charging Station Virta,DK,225
281605,54.911347,9.770135,"Aabenraavej 25, Sønderborg, None, DK",2020-11-05T21:57:34Z,281605,,Sønderborg,6400,11,,,DK,414
60011,55.689772,12.575891,"Stockholmsgade 11, 2100 København Ø, Denmark",2015-01-15T12:39:38Z,60011,København,København,2100,11,clever.dk,2 x 22kW,DK,509
316953,56.562873,9.029726,"Marius Jensens Vej 1B, 7800 Skive, Denmark",2021-05-01T11:11:30Z,316953,,Skive,7800,11,,Gratis opladning mens du handler.,DK,1317
245691,56.382735,9.667775,"Jørgens Alle, 8850 Bjerringbro, Danmark",2020-05-29T14:42:59Z,245691,,Bjerringbro,8850,11,,Clever.dk,DK,153
335455,56.272973,8.322686,"Tingvej 5, 6990 Ulfborg, Denmark",2021-08-27T12:07:10Z,335455,,Ulfborg,6990,11,,Clever 2 x 22 KW AC,DK,956
292405,55.510798,8.484167,"Edison Park 1, Esbjerg N, 6715, DK",2021-01-05T01:05:52Z,292405,,Esbjerg,6715,11,,,DK,3921
335653,55.655992,12.307488,"Taastrup Hovedgade 25, 2630 Taastrup",2021-08-28T08:26:35Z,335653,,Taastrup,2630,11,,,DK,170
58816,55.560853,12.229294,"Karlslunde Vest 1, Karlslunde Vest, 2690, DK",2014-12-15T11:02:40Z,58816,Greve Municipality,Karlslunde,2690,11,E.ON (http://www.eon.dk/e-mobility/),"E.ON Quick Charger
50kW CHAdeMO
50kW CCS
43kW Type 2
e-on",DK,543
59377,54.913594,9.777744,"Alsion 1, 6400 Sønderborg, Denmark",2014-12-29T15:53:09Z,59377,Sønderborg Municipality,Sønderborg,6400,11,clever.dk,Charging Station Clever A/S - 2x22kw,DK,6643
307228,55.913267,8.52005,"Åboulevarden 50, 6880 Tarm, Denmark",2021-03-06T00:58:45Z,307228,,Tarm,6880,11,,Charging Station Clever A/S,DK,2336
54695,56.846896,8.361424,Hvidbjerggårdsvej 5 7755 Bedsted,2014-09-12T10:35:29Z,54695,Thisted Municipality,Bedsted Thy,7755,11,,Looks more like a private driveway?!,DK,3887
93620,56.126334,10.214771,"Strandvejen 25, 8000 Aarhus C, Denmark",2016-08-13T10:15:59Z,93620,Aarhus Municipality,Aarhus,8000,11,150 DKK,"2x Red CEE
2x Danish Domestic Socket",DK,407
54685,57.092351,8.713295,"Bugt Vej 1, 7730 Hanstholm, Denmark",2014-09-12T10:15:09Z,54685,Thisted Municipality,Hanstholm,7730,11,,,DK,379
252281,55.759395,12.451257,"Vadstrupvej 21, 2880 Bagsværd, Danmark",2020-07-24T15:12:38Z,252281,,Bagsværd,2880,11,,32A CEE stik i parkeringsområde.,DK,924
307487,55.734049,9.584123,Innovations Allé 3 7100 Vejle,2021-03-07T22:15:43Z,307487,,Vejle,7100,11,,EVBOX 8 x 22 kW,DK,750
272038,55.066338,10.571548,"Ryttermarken 17B, 5700 Svendborg, Danmark",2020-10-22T12:39:02Z,272038,,Svendborg,5700,11,Clever stander som aktiveres med brik,"Clever oplader 2 stk ved Step A/S

Følg skiltene til hovedindgang for Step Power Print. Husmur v parkeringsplad",DK,448
128281,55.703602,12.595759,"Marmorvej 20, 2150‎ Nordhavn, Denmark",2017-09-12T12:15:23Z,128281,København,København,2100,11,,"Charging Station Virta
- Two Dual Type2 Wall Chargers. Bring your own cable.",DK,552
323777,55.695278,12.596056,"Forbindelsesvej 7B, 2100 København, Denmark",2021-06-17T07:35:09Z,323777,,København,2100,11,Spirii app and parking fee,By&Havn Indiakaj,DK,8
61893,55.668839,12.554153,"Skydebanegade 14, 1500 København V, Denmark",2015-03-10T13:16:48Z,61893,København,København,1709,11,E.ON (http://www.eon.dk/e-mobility/),Charging Station Virta,DK,3302
330494,55.360638,10.341397,"Hvidkærvej 25, 5250 Odense",2021-07-28T13:33:05Z,330494,,Odense,5250,11,,4 stk Clever stander,DK,624
264090,56.119816,10.133547,"Bøgeskov Høvej 8, 8260 Viby J, Danmark",2020-08-22T17:01:44Z,264090,,Viby J,8260,11,Clever abb,Står ved langemarkskolen,DK,8743
304349,56.188224,10.103992,"Langkærvej 2F, 8381 Tilst, Denmark",2021-02-15T11:45:39Z,304349,,Tilst,8381,11,,https://prostrom.dk,DK,15051
67369,55.777011,9.203031,Gødsbølskovvej 3 7323 Give Denmark,2015-07-14T15:58:10Z,67369,Vejle Municipality,Give,7323,11,,"
",DK,3842
178005,55.91146,11.916702,"Lille Bautahøjvej, 3630 Jægerspris, Danmark",2019-01-17T18:55:09Z,178005,,Jægerspris,3630,11,,"3 red three-phase 16A CEE sockets and reserved parking for electric cars. 
Ask reception before charging reception@bautahoj.dk",DK,75
137699,55.657484,13.111687,"Stationsvägen 15, 23253 ÅKARP, SWE",2017-12-09T08:16:15Z,137699,,Åkarp,232 53,11,Eon,,SE,1065
292451,55.697343,12.555734,"Refsnæsgade 49-51, København, 2200, DK",2021-01-05T01:06:45Z,292451,,København,2200,11,,,DK,6378
35667,55.48671,12.157368,"Lyngvej 19, Køge, 4600, DK",2013-11-20T20:43:17Z,35667,Køge Municipality,Køge,4600,11,clever.dk,,DK,1
135359,56.06529,12.749397,"Välavägen 29, 25464 HELSINGBORG, SWE",2017-11-14T19:26:35Z,135359,,Helsingborg,254 64,11,3kr/kWh,"3 x 16A 11kW InCharge Destinationsladdning, 3kr per kWh.",SE,696
326573,56.10897,10.161531,"Axel Kiers Vej 11, 8270 Højbjerg",2021-07-05T06:54:09Z,326573,,Højbjerg,8270,11,Requires CLEVER RFID. ,"2x 11 kW charging stations provided by CLEVER.

Max allowed charging time is 3 hours.",DK,885
